index,case number,sr location,county,district,neighborhood,tax id,trash quad,recycle quad,trash day,heavy trash day,recycle day,key map,management district,department,division,sr type,queue,sla,status,sr create date,due date,date closed,overdue,title,x,y,latitude,longitude,channel type,zipcode,openclosetime,openduetime,year
6,12091836-101002444730,"3303 SAGE, HOUSTON TX 77056",HARRIS,G,GREATER UPTOWN,4.514E+11,,,,,,491Y,,PWE Public Works Engineering,PU Public Utilities,Water Leak,PU_Water,10,Closed,1/1/2017 0:30,1/11/2017 0:30,2/2/2017 13:20,22.53,Water Leak-101002444730,3089853.524,13831195.74,29.7335217,-95.46610402,Voice In,77056,32 days 12:49:18.000000000,9 days 23:59:59.000000000,2017
12,12091839-101002444736,"7701 APPLETON, HOUSTON TX 77022",HARRIS,H,NORTHSIDE/NORTHLINE,7.1021E+11,NE,NW,MONDAY,3rd Monday,MONDAY-B,453L,Greater Northside MD,PWE Public Works Engineering,PU Public Utilities,Sewer Wastewater,PU_WasteWater,1,Closed,1/1/2017 5:22,1/2/2017 5:22,1/4/2017 11:00,2.23,Sewer Wastewater-101002444736,3119884.277,13867666.56,29.83123932,-95.3679551,Voice In,77022,3 days 05:37:27.000000000,0 days 23:59:58.000000000,2017
13,12091840-101002444737,"7701 APPLETON, HOUSTON TX 77022",HARRIS,H,NORTHSIDE/NORTHLINE,4.2005E+11,NE,NW,MONDAY,3rd Monday,MONDAY-B,453L,Greater Northside MD,PWE Public Works Engineering,PU Public Utilities,Water Service,PU_Water,2,Closed,1/1/2017 5:23,1/3/2017 5:23,1/4/2017 3:40,0.93,Water Service-101002444737,3119785.781,13867661.6,29.8312341,-95.36826609,Voice In,77022,2 days 22:16:31.000000000,2 days 00:00:00.000000000,2017
15,12091841-101002444739,"7612 APPLETON, HOUSTON TX 77022",HARRIS,H,NORTHSIDE/NORTHLINE,7.1021E+11,NE,NW,MONDAY,3rd Monday,MONDAY-B,453L,Greater Northside MD,PWE Public Works Engineering,PU Public Utilities,Water Service,PU_Water,2,Closed,1/1/2017 6:43,1/3/2017 6:43,1/1/2017 9:10,-1.9,Water Service-101002444739,3120069.146,13867375.14,29.83042255,-95.36740085,Voice In,77022,0 days 02:26:29.000000000,1 days 23:59:59.000000000,2017
23,12091843-101002444752,"7335 IWO JIMA, HOUSTON TX 77033",HARRIS,D,SOUTH PARK,7.5189E+11,SE,SE,FRIDAY,4th Thursday,FRIDAY-A,534S,HCID #10-A,PWE Public Works Engineering,PU Public Utilities,Water Leak,PU_Water,10,Closed,1/1/2017 8:45,1/11/2017 8:45,1/1/2017 11:20,-9.89,Water Leak-101002444752,3128978.891,13812277.81,29.67821452,-95.34474389,Voice In,77033,0 days 02:34:10.000000000,10 days 00:00:00.000000000,2017
27,12091845-101002444756,"1036 7TH 1/2, HOUSTON TX 77009",HARRIS,H,GREATER HEIGHTS,6.207E+11,NW,NW,THURSDAY,3rd Wednesday,THURSDAY-A,493B,Greater Northside MD,PWE Public Works Engineering,PU Public Utilities,Sewer Wastewater,PU_WasteWater,1,Closed,1/1/2017 9:49,1/2/2017 9:49,1/1/2017 12:00,-0.91,Sewer Wastewater-101002444756,3114767.173,13850367.37,29.78412578,-95.38577261,Voice In,77009,0 days 02:10:25.000000000,1 days 00:00:00.000000000,2017
30,12091851-101002444759,"10126 BRINWOOD, HOUSTON TX 77043",HARRIS,A,SPRING BRANCH WEST,9.0171E+11,NW,NE,FRIDAY,4th Friday,FRIDAY-A,450W,Spring Branch MD,PWE Public Works Engineering,PU Public Utilities,Water Leak,PU_Water,10,Closed,1/1/2017 10:23,1/11/2017 10:23,1/1/2017 12:55,-9.89,Water Leak-101002444759,3063753.442,13852904.14,29.79533715,-95.54628918,Voice In,77043,0 days 02:32:02.000000000,10 days 00:00:00.000000000,2017
33,12091847-101002444762,"2816 EVELLA, HOUSTON TX 77026",HARRIS,B,GREATER FIFTH WARD,6.1067E+11,NE,NW,FRIDAY,1st Friday,FRIDAY-B,454W,Greater Northside MD,PWE Public Works Engineering,PU Public Utilities,Sewer Wastewater,PU_WasteWater,1,Closed,1/1/2017 10:30,1/2/2017 10:30,1/12/2017 2:50,9.68,Sewer Wastewater-101002444762,3128836.854,13853378.86,29.79120044,-95.34114212,Voice In,77026,10 days 16:19:19.000000000,1 days 00:00:00.000000000,2017
36,12091850-101002444765,"111 VICEROY, HOUSTON TX 77034",HARRIS,E,EDGEBROOK AREA,9.6026E+11,SE,SW,THURSDAY,2nd Tuesday,THURSDAY-B,576G,,PWE Public Works Engineering,PU Public Utilities,Sewer Wastewater,PU_WasteWater,1,Closed,1/1/2017 10:56,1/2/2017 10:56,1/2/2017 16:10,0.22,Sewer Wastewater-101002444765,3170441.403,13802004.64,29.64635046,-95.21528241,Voice In,77034,1 days 05:13:16.000000000,1 days 00:00:00.000000000,2017
37,12091852-101002444766,"8125 WINTHROP, HOUSTON TX 77075",HARRIS,D,GREATER HOBBY AREA,7.72801E+11,SE,SE,FRIDAY,4th Monday,FRIDAY-B,575K,HCID #9,PWE Public Works Engineering,PU Public Utilities,Sewer Wastewater,PU_WasteWater,1,Closed,1/1/2017 11:04,1/2/2017 11:04,1/4/2017 3:35,1.69,Sewer Wastewater-101002444766,3151887.068,13794897.95,29.62845459,-95.27437978,Voice In,77075,2 days 16:30:29.000000000,1 days 00:00:00.000000000,2017
39,12091853-101002444768,"12722 HOLLANDALE, HOUSTON TX 77082",HARRIS,F,ELDRIDGE / WEST OAKS,1.11674E+12,SW,SW,MONDAY,1st Thursday,MONDAY-A,488Y,,PWE Public Works Engineering,PU Public Utilities,Water Leak,PU_Water,10,Closed,1/1/2017 11:07,1/11/2017 11:07,1/1/2017 13:00,-9.92,Water Leak-101002444768,3044044.6,13826614.15,29.72465584,-95.61080459,Voice In,77082,0 days 01:52:36.000000000,10 days 00:00:00.000000000,2017
42,12091857-101002444771,"5946 SOUTHSEAS, HOUSTON TX 77033",HARRIS,D,SOUTH PARK,7.6154E+11,SE,SE,FRIDAY,4th Wednesday,FRIDAY-A,534T,,PWE Public Works Engineering,PU Public Utilities,Sewer Wastewater,PU_WasteWater,1,Closed,1/1/2017 11:42,1/2/2017 11:42,1/1/2017 13:00,-0.95,Sewer Wastewater-101002444771,3133718.28,13811696.66,29.67620897,-95.32988305,Voice In,77033,0 days 01:17:12.000000000,1 days 00:00:00.000000000,2017
45,12091855-101002444774,"1415 W GULF BANK, HOUSTON TX 77088",HARRIS,B,ACRES HOME,1.02052E+12,,,,,,412Q,,PWE Public Works Engineering,PU Public Utilities,Sewer Wastewater,PU_WasteWater,1,Closed,1/1/2017 11:46,1/2/2017 11:46,1/1/2017 22:05,-0.57,Sewer Wastewater-101002444774,3102087.775,13887486.21,29.88722429,-95.42214684,Voice In,77088,0 days 10:18:20.000000000,1 days 00:00:00.000000000,2017
46,12091856-101002444775,"8771 VINKINS, HOUSTON TX 77071",HARRIS,K,BRAYS OAKS,1.1434E+12,SW,SW,THURSDAY,2nd Friday,THURSDAY-A,570E,HCID #5 (Brays Oaks),PWE Public Works Engineering,PU Public Utilities,Sewer Wastewater,PU_WasteWater,1,Closed,1/1/2017 11:50,1/2/2017 11:50,1/2/2017 14:50,0.12,Sewer Wastewater-101002444775,3069487.877,13797164.38,29.6416513,-95.53342553,Voice In,77071,1 days 02:59:20.000000000,0 days 23:59:59.000000000,2017
55,12091859-101002444784,"13931 LOCKE, HOUSTON TX 77077",HARRIS,G,ELDRIDGE / WEST OAKS,1.05095E+12,,,,,,488S,,PWE Public Works Engineering,PU Public Utilities,Sewer Wastewater,PU_WasteWater,1,Closed,1/1/2017 12:09,1/2/2017 12:09,1/2/2017 11:35,-0.02,Sewer Wastewater-101002444784,3035599.359,13830655.73,29.73643602,-95.63703591,Voice In,77077,0 days 23:25:39.000000000,1 days 00:00:00.000000000,2017
60,12091861-101002444791,"9327 OAK KNOLL, HOUSTON TX 77078",HARRIS,B,EAST HOUSTON,8.8198E+11,NE,NE,THURSDAY,2nd Monday,THURSDAY-A,456E,,PWE Public Works Engineering,PU Public Utilities,Sewer Wastewater,PU_WasteWater,1,Closed,1/1/2017 12:18,1/2/2017 12:18,1/2/2017 12:15,0,Sewer Wastewater-101002444791,3157651.441,13871790.25,29.8392957,-95.24848175,Voice In,77078,0 days 23:56:47.000000000,1 days 00:00:00.000000000,2017
61,12091862-101002444792,"5430 CHEVY CHASE, HOUSTON TX 77056",HARRIS,G,GREATER UPTOWN,9.7349E+11,NW,NW,MONDAY,4th Wednesday,MONDAY-A,491U,,PWE Public Works Engineering,PU Public Utilities,Water Leak,PU_Water,10,Closed,1/1/2017 12:19,1/11/2017 12:19,2/15/2017 2:05,34.57,Water Leak-101002444792,3088316.191,13835479.46,29.7454243,-95.47053863,Voice In,77056,44 days 13:46:10.000000000,10 days 00:00:00.000000000,2017
62,1.01002E+11,"4902 PAULA, HOUSTON TX 77033",HARRIS,D,SUNNYSIDE,7.52E+11,SE,SE,FRIDAY,4th Tuesday,FRIDAY-A,573D,HCID #10-A,SWM Solid Waste Management,Collections,Missed Garbage Pickup,SWM_CollectionsSE,4,Closed,1/1/2017 12:21,1/6/2017 8:00,1/4/2017 16:37,-1.64,Missed Garbage Collection-101002444793,3127384.443,13803741.51,29.65488742,-95.35060153,Voice In,77033,3 days 04:16:46.000000000,4 days 19:38:49.000000000,2017
64,12091863-101002444795,"5422 CHEVY CHASE, HOUSTON TX 77056",HARRIS,G,GREATER UPTOWN,9.7349E+11,NW,NW,MONDAY,4th Wednesday,MONDAY-A,491U,,PWE Public Works Engineering,PU Public Utilities,Water Leak,PU_Water,10,Closed,1/1/2017 12:26,1/11/2017 12:26,1/1/2017 13:35,-9.95,Water Leak-101002444795,3088454.059,13835466.6,29.74537752,-95.47010558,Voice In,77056,0 days 01:08:42.000000000,10 days 00:00:00.000000000,2017
70,12091865-101002444801,"9703 RAVENSWORTH, HOUSTON TX 77031",HARRIS,K,BRAYS OAKS,1.05923E+12,SW,SW,THURSDAY,2nd Friday,THURSDAY-A,569H,HCID #5 (Brays Oaks),PWE Public Works Engineering,PU Public Utilities,Sewer Wastewater,PU_WasteWater,1,Closed,1/1/2017 13:07,1/2/2017 13:07,1/1/2017 21:15,-0.66,Sewer Wastewater-101002444801,3064351.925,13798250.09,29.64505343,-95.54948638,Voice In,77031,0 days 08:07:54.000000000,1 days 00:00:00.000000000,2017
71,12091866-101002444802,"5946 SOUTHSEAS, HOUSTON TX 77033",HARRIS,D,SOUTH PARK,7.6154E+11,SE,SE,FRIDAY,4th Wednesday,FRIDAY-A,534T,,PWE Public Works Engineering,PU Public Utilities,Sewer Wastewater,PU_WasteWater,1,Closed,1/1/2017 13:11,1/2/2017 13:11,1/11/2017 1:15,8.5,Sewer Wastewater-101002444802,3133718.28,13811696.66,29.67620897,-95.32988305,Voice In,77033,9 days 12:03:50.000000000,1 days 00:00:00.000000000,2017
72,12091867-101002444803,"7139 KERNEL, HOUSTON TX 77087",HARRIS,I,PECAN PARK,6.0127E+11,SE,SE,MONDAY,1st Tuesday,MONDAY-B,535E,East End MD,PWE Public Works Engineering,PU Public Utilities,Sewer Wastewater,PU_WasteWater,1,Closed,1/1/2017 13:11,1/2/2017 13:11,1/4/2017 3:35,1.6,Sewer Wastewater-101002444803,3145768.946,13824223.3,29.70959544,-95.29070111,Voice In,77087,2 days 14:23:11.000000000,0 days 23:59:59.000000000,2017
73,12091868-101002444804,"2403 PANAGARD, HOUSTON TX 77077",HARRIS,G,ELDRIDGE / WEST OAKS,1.00529E+12,,,,,,488T,,PWE Public Works Engineering,PU Public Utilities,Sewer Wastewater,PU_WasteWater,1,Closed,1/1/2017 13:21,1/2/2017 13:21,1/2/2017 20:20,0.29,Sewer Wastewater-101002444804,3037323.511,13831029.33,29.73732656,-95.63157135,Voice In,77077,1 days 06:58:59.000000000,1 days 00:00:00.000000000,2017
74,12091869-101002444805,"3401 W 11TH, HOUSTON TX 77008",HARRIS,C,LAZYBROOK / TIMBERGROVE,4.4082E+11,,,,,,492A,,PWE Public Works Engineering,PU Public Utilities,Water Leak,PU_Water,10,Closed,1/1/2017 13:22,1/11/2017 13:22,1/1/2017 14:25,-9.96,Water Leak-101002444805,3098477.321,13851566.92,29.78879735,-95.43698798,Voice In,77008,0 days 01:02:14.000000000,10 days 00:00:00.000000000,2017
77,12091870-101002444808,"611 WESTHEIMER, HOUSTON TX 77006",HARRIS,C,NEARTOWN - MONTROSE,2.6152E+11,NW,NE,MONDAY,1st Wednesday,MONDAY-A,493S,Montrose Management District,PWE Public Works Engineering,Street and Drainage,Street Hazard,ROWM_StreetMain,10,Closed,1/1/2017 13:35,1/11/2017 13:35,1/2/2017 6:30,-9.3,Street Hazard-101002444808,3113992.762,13835861.55,29.74431951,-95.38962431,Voice In,77006,0 days 16:54:10.000000000,9 days 23:59:59.000000000,2017
81,12091872-101002444813,"4218 WIPPRECHT, HOUSTON TX 77026",HARRIS,B,KASHMERE GARDENS,6.5123E+11,NE,NE,FRIDAY,1st Thursday,FRIDAY-B,454Y,,PWE Public Works Engineering,PU Public Utilities,Sewer Wastewater,PU_WasteWater,1,Closed,1/1/2017 13:50,1/2/2017 13:50,1/2/2017 11:40,-0.09,Sewer Wastewater-101002444813,3134769.794,13856551.75,29.79940984,-95.32213171,Voice In,77026,0 days 21:49:18.000000000,1 days 00:00:00.000000000,2017
91,1.01002E+11,"5119 ARIZONA, HOUSTON TX 77017",HARRIS,I,MEADOWBROOK / ALLENDALE,5.91851E+11,SE,SE,MONDAY,1st Monday,MONDAY-B,535V,,SWM Solid Waste Management,Collections,Container Problem,SWM_CollectionsSE,10,Closed,1/1/2017 14:04,1/11/2017 14:04,1/31/2017 17:06,20.13,Repair or Replace Damaged or Missing Container,NULL,NULL,29.67742477,-95.25864524,WEB,77017,30 days 03:01:28.000000000,10 days 00:00:00.000000000,2017
92,12091873-101002444824,"905 15TH 1/2, HOUSTON TX 77008",HARRIS,C,GREATER HEIGHTS,5.6168E+11,NW,NE,THURSDAY,3rd Wednesday,THURSDAY-B,452Y,,PWE Public Works Engineering,PU Public Utilities,Sewer Wastewater,PU_WasteWater,1,Closed,1/1/2017 14:08,1/2/2017 14:08,1/2/2017 20:25,0.26,Sewer Wastewater-101002444824,3105512.81,13855487.89,29.7989837,-95.4144388,Voice In,77008,1 days 06:16:57.000000000,1 days 00:00:00.000000000,2017
93,12091874-101002444825,"7451 COOK, HOUSTON TX 77072",HARRIS,F,ALIEF,1.02041E+12,,,,,,529J,International MD,PWE Public Works Engineering,PU Public Utilities,Water Leak,PU_Water,10,Closed,1/1/2017 14:13,1/11/2017 14:13,3/29/2017 10:20,76.84,Water Leak-101002444825,3050031.256,13816968.72,29.69766336,-95.59283565,Voice In,77072,86 days 20:06:12.000000000,10 days 00:00:00.000000000,2017
94,12091875-101002444826,"13706 WICKERSHAM, HOUSTON TX 77077",HARRIS,G,ELDRIDGE / WEST OAKS,1.00529E+12,,,,,,488T,,PWE Public Works Engineering,PU Public Utilities,Sewer Wastewater,PU_WasteWater,1,Closed,1/1/2017 14:19,1/2/2017 14:19,1/1/2017 15:10,-0.96,Sewer Wastewater-101002444826,3037309.574,13831183.52,29.73775151,-95.63160126,Voice In,77077,0 days 00:50:37.000000000,1 days 00:00:00.000000000,2017
95,12091876-101002444827,"901 15TH 1/2, HOUSTON TX 77008",HARRIS,C,GREATER HEIGHTS,5.6168E+11,NW,NE,THURSDAY,3rd Wednesday,THURSDAY-B,452Y,,PWE Public Works Engineering,PU Public Utilities,Sewer Wastewater,PU_WasteWater,1,Closed,1/1/2017 14:24,1/2/2017 14:24,1/1/2017 15:50,-0.94,Sewer Wastewater-101002444827,3105575.285,13855490.7,29.79898615,-95.41424164,Voice In,77008,0 days 01:25:27.000000000,1 days 00:00:00.000000000,2017
96,1.01002E+11,"6703 KRAUSE, HOUSTON TX 77489",FORT BEND,K,FORT BEND HOUSTON,2.15003E+15,SW,SW,FRIDAY,3rd Friday,FRIDAY-A,571W,,SWM Solid Waste Management,Collections,Missed Garbage Pickup,SWM_CollectionsSW,4,Closed,1/1/2017 14:26,1/6/2017 8:00,1/6/2017 15:29,0.31,Missed Garbage Collection-101002444828,3085124.96,13780468.47,29.59447292,-95.48579913,Voice In,77489,5 days 01:03:12.000000000,4 days 17:33:35.000000000,2017
97,1.01002E+11,"7612 CAMWOOD, HOUSTON TX 77087",HARRIS,I,GOLFCREST / BELLFORT / REVEILLE,5.5127E+11,SE,SE,TUESDAY,3rd Wednesday,TUESDAY-A,535N,,SWM Solid Waste Management,Collections,Container Problem,SWM_CollectionsSE,10,Closed,1/1/2017 14:33,1/11/2017 14:33,1/3/2017 15:48,-7.95,Repair or Replace Damaged or Missing Container-101002444829,3146707.658,13815651.58,29.68595272,-95.28860221,Voice In,77087,2 days 01:14:43.000000000,10 days 00:00:00.000000000,2017
101,1.01002E+11,"6406 ACORN FOREST, HOUSTON TX 77088",HARRIS,A,GREATER INWOOD,1.01317E+12,NW,NW,TUESDAY,4th Monday,TUESDAY-B,411S,Near Northwest MD,SWM Solid Waste Management,Collections,Container Problem,SWM_CollectionsNW,10,Closed,1/1/2017 14:54,1/11/2017 14:54,1/10/2017 10:30,-1.18,Repair or Replace Damaged or Missing Container-101002444834,3081567.999,13880750.63,29.87042082,-95.48751077,Voice In,77088,8 days 19:36:35.000000000,10 days 00:00:00.000000000,2017
102,12091878-101002444835,"1401 CONFEDERATE, HOUSTON TX 77055",HARRIS,A,SPRING BRANCH WEST,7.9051E+11,NW,NE,FRIDAY,4th Wednesday,FRIDAY-A,450X,Spring Branch MD,PWE Public Works Engineering,PU Public Utilities,Sewer Wastewater,PU_WasteWater,1,Closed,1/1/2017 14:54,1/2/2017 14:54,1/1/2017 16:55,-0.92,Sewer Wastewater-101002444835,3069451.52,13852603.83,29.79404779,-95.52835981,Voice In,77055,0 days 02:00:48.000000000,1 days 00:00:00.000000000,2017
103,12091879-101002444836,"10303 HOMESTEAD, HOUSTON TX 77016",HARRIS,B,EAST LITTLE YORK / HOMESTEAD,8.5175E+11,NE,NW,TUESDAY,2nd Thursday,TUESDAY-A,414Z,,PWE Public Works Engineering,PU Public Utilities,Sewer Wastewater,PU_WasteWater,1,Closed,1/1/2017 14:56,1/2/2017 14:56,1/2/2017 14:50,0,Sewer Wastewater-101002444836,3140796.244,13879140.25,29.86097364,-95.30088741,Voice In,77016,0 days 23:53:55.000000000,0 days 23:59:59.000000000,2017
104,12091880-101002444837,"7726 ASHMOLE, HOUSTON TX 77088",HARRIS,A,ACRES HOME,3.6104E+11,NW,NW,TUESDAY,4th Monday,TUESDAY-B,411V,,PWE Public Works Engineering,PU Public Utilities,Sewer Wastewater,PU_WasteWater,1,Closed,1/1/2017 15:03,1/2/2017 15:03,1/2/2017 12:05,-0.12,Sewer Wastewater-101002444837,3091952.355,13883183.13,29.87624538,-95.45452838,Voice In,77088,0 days 21:01:48.000000000,0 days 23:59:59.000000000,2017
108,12091881-101002444841,"4523 BILLINGSLEY, HOUSTON TX 77009",HARRIS,H,NEAR NORTHSIDE,2.11831E+11,NE,NW,FRIDAY,1st Friday,FRIDAY-B,453Y,Greater Northside MD,PWE Public Works Engineering,PU Public Utilities,Water Leak,PU_Water,10,Closed,1/1/2017 15:13,1/11/2017 15:13,1/1/2017 17:05,-9.92,Water Leak-101002444841,3122017.04,13856921.26,29.80152218,-95.36228561,Voice In,77009,0 days 01:52:00.000000000,10 days 00:00:00.000000000,2017
113,12091884-101002444846,"9400 DOLIVER, HOUSTON TX 77024",HARRIS,G,MID WEST,1.11117E+12,,,,,,490P,,PWE Public Works Engineering,PU Public Utilities,Water Leak,PU_Water,10,Closed,1/1/2017 15:36,1/11/2017 15:36,2/15/2017 2:05,34.44,Water Leak-101002444846,3068795.889,13836289.65,29.74925705,-95.53195106,Voice In,77024,44 days 10:28:58.000000000,9 days 23:59:59.000000000,2017
114,12091885-101002444847,"3756 KNOLLWOOD, HOUSTON TX 77019",HARRIS,G,AFTON OAKS / RIVER OAKS AREA,6.01631E+11,,,,,,492N,,PWE Public Works Engineering,PU Public Utilities,Water Leak,PU_Water,10,Closed,1/1/2017 15:37,1/11/2017 15:37,1/5/2017 1:15,-6.6,Water Leak-101002444847,3098059.599,13838781.23,29.75368801,-95.4395313,Voice In,77019,3 days 09:37:46.000000000,10 days 00:00:00.000000000,2017
115,12091886-101002444848,"16434 LONESOME QUAIL, HOUSTON TX 77489",FORT BEND,K,FORT BEND HOUSTON,5.89001E+15,SW,SW,FRIDAY,3rd Friday,FRIDAY-A,610B,,PWE Public Works Engineering,PU Public Utilities,Sewer Wastewater,PU_WasteWater,1,Closed,1/1/2017 15:47,1/2/2017 15:47,1/2/2017 15:55,0.01,Sewer Wastewater-101002444848,3074337.535,13777744.26,29.58787132,-95.51998382,Voice In,77489,1 days 00:07:59.000000000,1 days 00:00:00.000000000,2017
116,1.01002E+11,"3735 W ALABAMA, HOUSTON TX 77027",HARRIS,C,GREENWAY / UPPER KIRBY AREA,4.1017E+11,,,,,,492S,,PWE Public Works Engineering,Traffic Operations,Traffic Signal Maintenance,TT_SignalMainDispatch,1,Closed,1/1/2017 15:53,1/2/2017 15:53,1/1/2017 18:01,-0.91,Traffic Signal Maintenance-101002444849,3098627.014,13833081.67,29.73797386,-95.43829084,Voice In,77027,0 days 02:07:17.000000000,1 days 00:00:00.000000000,2017
121,12091887-101002444854,"3702 GRAPEVINE, HOUSTON TX 77045",HARRIS,K,CENTRAL SOUTHWEST,8.5469E+11,SW,SW,FRIDAY,4th Tuesday,FRIDAY-B,572P,Five Corners HCID #10B,PWE Public Works Engineering,PU Public Utilities,Sewer Wastewater,PU_WasteWater,1,Closed,1/1/2017 16:09,1/2/2017 16:09,1/2/2017 14:50,-0.06,Sewer Wastewater-101002444854,3101992.45,13789131.53,29.61688209,-95.43191552,Voice In,77045,0 days 22:40:31.000000000,1 days 00:00:00.000000000,2017
126,12091888-101002444859,"7700 CREEKBEND, HOUSTON TX 77071",HARRIS,K,BRAYS OAKS,1.08323E+12,,,,,,530Y,HCID #5 (Brays Oaks),PWE Public Works Engineering,PU Public Utilities,Sewer Wastewater,PU_WasteWater,1,Closed,1/1/2017 16:19,1/2/2017 16:19,1/1/2017 17:50,-0.94,Sewer Wastewater,NULL,NULL,29.66573823,-95.51393105,WEB,77071,0 days 01:30:45.000000000,1 days 00:00:00.000000000,2017
130,1.01002E+11,"4702 WARING, HOUSTON TX 77027",HARRIS,G,AFTON OAKS / RIVER OAKS AREA,7.7246E+11,,,,,,491Z,,PWE Public Works Engineering,PU Public Utilities,Water Leak,PU_Water,10,Closed,1/1/2017 16:41,1/11/2017 16:41,1/3/2017 7:39,-8.38,Water Leak,NULL,NULL,29.73406082,-95.45594964,Voice In,77027,1 days 14:58:43.000000000,10 days 00:00:00.000000000,2017
132,12091890-101002444865,"10607 SAGEWICK, HOUSTON TX 77089",HARRIS,D,SOUTH BELT / ELLINGTON,1.03005E+12,SE,SW,THURSDAY,2nd Thursday,THURSDAY-B,576Y,,PWE Public Works Engineering,PU Public Utilities,Sewer Wastewater,PU_WasteWater,1,Closed,1/1/2017 16:42,1/2/2017 16:42,1/2/2017 16:10,-0.02,Sewer Wastewater-101002444865,3169856.207,13787273.84,29.6059125,-95.21862305,Voice In,77089,0 days 23:27:19.000000000,1 days 00:00:00.000000000,2017
133,12091889-101002444866,"4702 WARING, HOUSTON TX 77027",HARRIS,G,AFTON OAKS / RIVER OAKS AREA,7.7246E+11,,,,,,491Z,,PWE Public Works Engineering,PU Public Utilities,Water Service,PU_Water,2,Closed,1/1/2017 16:42,1/3/2017 16:42,1/5/2017 1:15,1.36,Water Service-101002444866,3093068.723,13831489.19,29.73406082,-95.45594964,Voice In,77027,3 days 08:32:12.000000000,2 days 00:00:00.000000000,2017
134,12091891-101002444867,"3022 BRISBANE, HOUSTON TX 77051",HARRIS,D,SUNNYSIDE,8.4338E+11,SE,SE,FRIDAY,4th Friday,FRIDAY-B,573K,HCID #10-A,PWE Public Works Engineering,PU Public Utilities,Sewer Wastewater,PU_WasteWater,1,Closed,1/1/2017 16:43,1/2/2017 16:43,1/1/2017 18:40,-0.92,Sewer Wastewater-101002444867,3118589.586,13797327.18,29.63800763,-95.37890453,Voice In,77051,0 days 01:56:05.000000000,1 days 00:00:00.000000000,2017
139,12091893-101002444872,"15311 TONYA, HOUSTON TX 77060",HARRIS,B,GREATER GREENSPOINT,1.03202E+12,NE,NW,MONDAY,3rd Tuesday,MONDAY-B,373W,,PWE Public Works Engineering,PU Public Utilities,Sewer Wastewater,PU_WasteWater,1,Closed,1/1/2017 16:53,1/2/2017 16:53,1/3/2017 21:20,1.19,Sewer Wastewater-101002444872,3109626.871,13901013.84,29.92376985,-95.39705185,Voice In,77060,2 days 04:26:30.000000000,1 days 00:00:00.000000000,2017
141,12091894-101002444874,"18910 VANTAGE VIEW, HOUSTON TX 77346",HARRIS,E,,1.15236E+12,,,,,,338W,,PWE Public Works Engineering,Street and Drainage,Street Hazard,ROWM_StreetMain,10,Closed,1/1/2017 17:07,1/11/2017 17:07,1/2/2017 6:35,-9.44,Street Hazard-101002444874,3190159.707,13929129.61,29.99397983,-95.14003026,Voice In,77346,0 days 13:27:30.000000000,10 days 00:00:00.000000000,2017
142,12091895-101002444875,"3230 S GESSNER, HOUSTON TX 77042",HARRIS,F,WESTCHASE,4.0161E+11,,,,,,490W,Westchase MD,PWE Public Works Engineering,PU Public Utilities,Sewer Wastewater,PU_WasteWater,1,Closed,1/1/2017 17:11,1/2/2017 17:11,1/1/2017 18:40,-0.94,Sewer Wastewater-101002444875,3066646.653,13828962.78,29.7292919,-95.53940448,Voice In,77042,0 days 01:28:20.000000000,1 days 00:00:00.000000000,2017
145,12091896-101002444878,"2315 LEFFINGWELL, HOUSTON TX 77026",HARRIS,B,GREATER FIFTH WARD,1.7068E+11,NE,NW,FRIDAY,1st Thursday,FRIDAY-B,494B,,PWE Public Works Engineering,PU Public Utilities,Sewer Wastewater,PU_WasteWater,1,Closed,1/1/2017 17:20,1/2/2017 17:20,1/1/2017 19:15,-0.92,Sewer Wastewater-101002444878,3132576.616,13850679.97,29.78345997,-95.32962436,Voice In,77026,0 days 01:54:37.000000000,1 days 00:00:00.000000000,2017
148,1.01002E+11,"11015 ATWELL, HOUSTON TX 77096",HARRIS,K,WESTBURY,9.0413E+11,SW,SE,THURSDAY,2nd Thursday,THURSDAY-A,531X,,SWM Solid Waste Management,Collections,Container Problem,SWM_CollectionsSW,10,Closed,1/1/2017 17:44,1/11/2017 17:44,1/19/2017 12:07,7.77,Repair or Replace Damaged or Missing Container-101002444881,3085651.461,13804399.81,29.66021328,-95.48187818,Voice In,77096,17 days 18:22:52.000000000,9 days 23:59:59.000000000,2017
149,1.01002E+11,"332 W 21ST, HOUSTON TX 77008",HARRIS,C,GREATER HEIGHTS,2.0081E+11,NW,NE,THURSDAY,3rd Wednesday,THURSDAY-B,452V,,SWM Solid Waste Management,Collections,Container Problem,SWM_CollectionsNW,10,Closed,1/1/2017 17:44,1/11/2017 17:44,1/31/2017 16:58,19.97,Repair or Replace Damaged or Missing Container,NULL,NULL,29.80464034,-95.40292876,WEB,77008,29 days 23:14:29.000000000,10 days 00:00:00.000000000,2017
150,12091898-101002444883,"4418 HOWCHER, HOUSTON TX 77047",HARRIS,D,SOUTH ACRES / CRESTMONT PARK,8.6211E+11,SE,SE,FRIDAY,4th Friday,FRIDAY-B,573M,HCID #10-A,PWE Public Works Engineering,PU Public Utilities,Sewer Wastewater,PU_WasteWater,1,Closed,1/1/2017 17:46,1/2/2017 17:46,1/1/2017 18:40,-0.96,Sewer Wastewater-101002444883,3125482.799,13797078.05,29.63673421,-95.35723943,Voice In,77047,0 days 00:53:43.000000000,1 days 00:00:00.000000000,2017
154,12091899-101002444887,"5686 GRAND FLORAL, UNINCORPORATED TX 77041",HARRIS,,,1.17901E+12,,,,,,448C,,PWE Public Works Engineering,Street and Drainage,Street Hazard,ROWM_StreetMain,10,Closed,1/1/2017 18:01,1/11/2017 17:57,1/2/2017 6:35,-9.47,Street Hazard-101002444887,3040794.121,13872612.8,29.85135719,-95.61684971,Voice In,77041,0 days 12:33:16.000000000,9 days 23:55:14.000000000,2017
156,12091900-101002444895,"1406 MCILHENNY, HOUSTON TX 77004",HARRIS,D,MIDTOWN,1.34548E+12,NW,NE,MONDAY,1st Wednesday,MONDAY-A,493U,Midtown MD,PWE Public Works Engineering,PU Public Utilities,Sewer Wastewater,PU_WasteWater,1,Closed,1/1/2017 18:38,1/2/2017 18:38,1/2/2017 14:50,-0.16,Sewer Wastewater-101002444895,3120365.255,13836010.8,29.74418736,-95.36953769,Voice In,77004,0 days 20:11:06.000000000,1 days 00:00:00.000000000,2017
159,12091901-101002444898,"11751 PECAN CREEK, HOUSTON TX 77043",HARRIS,A,SPRING BRANCH WEST,1.11785E+12,,,,,,449W,,PWE Public Works Engineering,PU Public Utilities,Water Leak,PU_Water,10,Closed,1/1/2017 19:03,1/11/2017 19:03,1/2/2017 10:55,-9.34,Water Leak,NULL,NULL,29.78839347,-95.59273826,WEB,77043,0 days 15:51:03.000000000,10 days 00:00:00.000000000,2017
162,12091902-101002444901,"812 WESTHEIMER, HOUSTON TX 77006",HARRIS,C,NEARTOWN - MONTROSE,2.6151E+11,NW,NE,MONDAY,1st Wednesday,MONDAY-A,493S,Montrose Management District,PWE Public Works Engineering,PU Public Utilities,Water Leak,PU_Water,10,Closed,1/1/2017 19:12,1/11/2017 19:12,1/4/2017 3:25,-7.66,Water Leak-101002444901,3113833.64,13836076.45,29.74518029,-95.39009235,Voice In,77006,2 days 08:12:13.000000000,10 days 00:00:00.000000000,2017
163,12091903-101002444902,"2549 MUNGER, HOUSTON TX 77023",HARRIS,I,GULFGATE RIVERVIEW / PINE VALLEY,6.9052E+11,SE,SE,TUESDAY,3rd Thursday,TUESDAY-A,534F,,PWE Public Works Engineering,PU Public Utilities,Sewer Wastewater,PU_WasteWater,1,Closed,1/1/2017 19:37,1/2/2017 19:37,1/2/2017 11:35,-0.33,Sewer Wastewater-101002444902,3134537.695,13825332.74,29.71361974,-95.32595498,Voice In,77023,0 days 15:57:43.000000000,1 days 00:00:00.000000000,2017
164,12091904-101002444903,"16302 EDGEMONT, HOUSTON TX 77053",FORT BEND,K,FORT BEND HOUSTON,6.25004E+15,SW,SW,FRIDAY,4th Friday,FRIDAY-A,611C,,PWE Public Works Engineering,PU Public Utilities,Sewer Wastewater,PU_WasteWater,1,Closed,1/1/2017 19:42,1/2/2017 19:42,1/2/2017 14:50,-0.2,Sewer Wastewater-101002444903,3091638.835,13777942.58,29.5869898,-95.46555152,Voice In,77053,0 days 19:07:43.000000000,0 days 23:59:59.000000000,2017
168,42415-101002444907,"4509 COKE, HOUSTON TX 77020",HARRIS,B,GREATER FIFTH WARD,2.911E+11,NE,NW,FRIDAY,1st Thursday,FRIDAY-B,494K,,NS Neighborhood Services,Investigations,Nuisance On Property,NS_Dispatch,180,Closed,1/1/2017 20:22,9/15/2017 8:00,1/5/2017 16:46,-252.63,"Nuisance on Property - Trash, Substances, Weeds, etc.-101002444907",3134156.781,13845169.32,29.76817675,-95.3251911,Voice In,77020,3 days 20:23:30.000000000,256 days 11:37:24.000000000,2017
169,12091905-101002444908,"7534 S HALL, HOUSTON TX 77028",HARRIS,B,TRINITY / HOUSTON GARDENS,7.9101E+11,NE,NW,THURSDAY,2nd Tuesday,THURSDAY-A,455E,,PWE Public Works Engineering,PU Public Utilities,Sewer Wastewater,PU_WasteWater,1,Closed,1/1/2017 20:22,1/2/2017 20:22,1/2/2017 12:10,-0.34,Sewer Wastewater-101002444908,3143885.961,13869980.23,29.83552777,-95.29206061,Voice In,77028,0 days 15:47:14.000000000,0 days 23:59:59.000000000,2017
170,12091906-101002444909,"1114 E 6TH 1/2, HOUSTON TX 77009",HARRIS,H,GREATER HEIGHTS,6.2075E+11,NW,NW,THURSDAY,3rd Wednesday,THURSDAY-A,493A,Greater Northside MD,PWE Public Works Engineering,PU Public Utilities,Sewer Wastewater,PU_WasteWater,1,Closed,1/1/2017 20:26,1/2/2017 20:26,1/1/2017 21:40,-0.95,Sewer Wastewater-101002444909,3114614.997,13849689.27,29.78227483,-95.38631816,Voice In,77009,0 days 01:13:16.000000000,1 days 00:00:00.000000000,2017
172,12091907-101002444911,"13503 BARRYKNOLL, HOUSTON TX 77079",HARRIS,G,MEMORIAL,9.8107E+11,,,,,,489B,,PWE Public Works Engineering,PU Public Utilities,Water Leak,PU_Water,10,Closed,1/1/2017 20:33,1/11/2017 20:33,1/2/2017 11:10,-9.39,Water Leak-101002444911,3053755.169,13846262.84,29.77788964,-95.57841163,Voice In,77079,0 days 14:36:32.000000000,10 days 00:00:00.000000000,2017
180,12091912-101002444921,"10515 KIRKHILL, HOUSTON TX 77089",HARRIS,D,SOUTH BELT / ELLINGTON,1.03011E+12,SE,SW,THURSDAY,2nd Thursday,THURSDAY-B,576T,,PWE Public Works Engineering,PU Public Utilities,Sewer Wastewater,PU_WasteWater,1,Closed,1/1/2017 21:25,1/2/2017 21:25,1/19/2017 9:10,16.49,Sewer Wastewater-101002444921,3169002.845,13787809.07,29.60745951,-95.2212528,Voice In,77089,17 days 11:44:24.000000000,1 days 00:00:00.000000000,2017
182,12091913-101002444923,"1833 ROSALIE, HOUSTON TX 77004",HARRIS,D,MIDTOWN,1.32043E+12,NW,NE,MONDAY,1st Wednesday,MONDAY-A,493U,Midtown MD,PWE Public Works Engineering,PU Public Utilities,Water Service,PU_Water,2,Closed,1/1/2017 21:35,1/3/2017 21:35,1/2/2017 12:25,-1.38,Water Service-101002444923,3120638.864,13833695.68,29.73780042,-95.36890236,Voice In,77004,0 days 14:49:38.000000000,2 days 00:00:00.000000000,2017
185,12091914-101002444926,"3221 PROSWIMMER, HOUSTON TX 77088",HARRIS,B,ACRES HOME,8.2037E+11,NW,NW,TUESDAY,4th Monday,TUESDAY-B,411R,,PWE Public Works Engineering,PU Public Utilities,Sewer Wastewater,PU_WasteWater,1,Closed,1/1/2017 22:12,1/2/2017 22:12,1/2/2017 6:10,-0.67,Sewer Wastewater-101002444926,3090475.469,13886624.75,29.88582823,-95.45885763,Voice In,77088,0 days 07:57:25.000000000,0 days 23:59:59.000000000,2017
193,12091916-101002444935,"1518 AULINE, HOUSTON TX 77055",HARRIS,A,SPRING BRANCH EAST,7.7039E+11,NW,SW,FRIDAY,4th Wednesday,Friday-a,451X,Spring Branch MD,PWE Public Works Engineering,PU Public Utilities,Water Service,PU_Water,2,Closed,1/2/2017 0:38,1/4/2017 0:38,1/2/2017 12:25,-1.51,Water Service-101002444935,3084285.726,13854592,29.79829384,-95.48142245,Voice In,77055,0 days 11:46:07.000000000,2 days 00:00:00.000000000,2017
195,12091917-101002444937,"5143 FAIRGREEN, HOUSTON TX 77048",HARRIS,D,SOUTH ACRES / CRESTMONT PARK,9.7447E+11,SE,SE,FRIDAY,4th Tuesday,FRIDAY-B,573M,HCID #10-A,PWE Public Works Engineering,PU Public Utilities,Sewer Wastewater,PU_WasteWater,1,Closed,1/2/2017 1:49,1/3/2017 1:49,1/2/2017 9:50,-0.67,Sewer Wastewater-101002444937,3128905.455,13795227.54,29.63135404,-95.34665214,Voice In,77048,0 days 08:00:07.000000000,0 days 23:59:59.000000000,2017
197,169225-101002444939,"1802 RICHMOND, HOUSTON TX 77098",HARRIS,C,NEARTOWN - MONTROSE,5.6273E+11,NW,NE,MONDAY,1st Wednesday,MONDAY-A,492Z,Montrose Management District,PWE Public Works Engineering,Traffic Operations,Traffic Signal Maintenance,TT_SignalMainDispatch,1,Closed,1/2/2017 1:58,1/3/2017 1:58,1/2/2017 3:43,-0.93,Traffic Signal Maintenance - 169225,3109388.985,13832096.14,29.73450696,-95.40466096,WAP,77098,0 days 01:44:51.000000000,1 days 00:00:00.000000000,2017
198,42416-101002444940,"3407 GANO, HOUSTON TX 77009",HARRIS,H,NEAR NORTHSIDE,3.1034E+11,NE,NW,FRIDAY,1st Friday,FRIDAY-B,453Z,Greater Northside MD,NS Neighborhood Services,Investigations,Nuisance On Property,NS_Dispatch,180,Closed,1/2/2017 5:53,9/15/2017 8:00,9/18/2017 12:22,3.18,"Nuisance on Property - Trash, Substances, Weeds, etc.-101002444940",3124347.141,13853448.77,29.79177806,-95.35528336,Voice In,77009,259 days 06:29:07.000000000,256 days 02:06:16.000000000,2017
200,1.01002E+11,"9012 COMPTON, HOUSTON TX 77016",HARRIS,B,TRINITY / HOUSTON GARDENS,7.1029E+11,NE,NW,TUESDAY,2nd Tuesday,TUESDAY-A,454H,,SWM Solid Waste Management,Collections,Container Problem,SWM_CollectionsNE,10,Closed,1/2/2017 6:07,1/12/2017 6:07,1/4/2017 15:37,-7.6,Repair or Replace Damaged or Missing Container-101002444942,3139548.159,13872704.51,29.84339311,-95.30546436,Voice In,77016,2 days 09:30:32.000000000,10 days 00:00:00.000000000,2017
204,12091919-101002444947,"1006 MEADOWLARK, HOUSTON TX 77017",HARRIS,E,MEADOWBROOK / ALLENDALE,6.10661E+11,SE,SE,MONDAY,1st Monday,MONDAY-B,536N,,PWE Public Works Engineering,PU Public Utilities,Sewer Wastewater,PU_WasteWater,1,Closed,1/2/2017 6:56,1/3/2017 6:56,1/3/2017 14:50,0.33,Sewer Wastewater-101002444947,3163315.28,13817610.12,29.68987669,-95.23612497,Voice In,77017,1 days 07:53:22.000000000,1 days 00:00:00.000000000,2017
215,1.01002E+11,"8181 FANNIN, HOUSTON TX 77054",HARRIS,K,ASTRODOME AREA,1.18271E+12,,,,,,532R,,PWE Public Works Engineering,Traffic Operations,Traffic Signal Maintenance,TT_SignalMainDispatch,1,Closed,1/2/2017 8:05,1/3/2017 8:04,1/2/2017 10:02,-0.92,Traffic Signal Maintenance-101002444959,3110828.227,13814953.35,29.68711658,-95.40161897,Unknown,77054,0 days 01:57:01.000000000,0 days 23:58:11.000000000,2017
218,12091921-101002444962,"12303 SILO, HOUSTON TX 77071",HARRIS,K,BRAYS OAKS,1.08134E+12,SW,SW,THURSDAY,3rd Thursday,THURSDAY-A,570G,HCID #5 (Brays Oaks),PWE Public Works Engineering,PU Public Utilities,Water Service,PU_Water,2,Closed,1/2/2017 8:11,1/4/2017 8:11,1/2/2017 12:25,-1.82,Water Service-101002444962,3076644.655,13798212.18,29.64394636,-95.5108066,Voice In,77071,0 days 04:13:58.000000000,2 days 00:00:00.000000000,2017
220,42418-101002444964,"3602 WARD, HOUSTON TX 77021",HARRIS,D,GREATER OST / SOUTH UNION,7.709E+11,SE,SW,TUESDAY,3rd Tuesday,TUESDAY-A,533L,,NS Neighborhood Services,Investigations,Nuisance On Property,NS_Dispatch,180,Closed,1/2/2017 8:15,9/15/2017 8:00,1/3/2017 9:45,-254.93,"Nuisance on Property - Trash, Substances, Weeds, etc.-101002444964",3121553.36,13817619.52,29.69353356,-95.36759521,Voice In,77021,1 days 01:30:22.000000000,255 days 23:44:28.000000000,2017
222,1.01002E+11,"5637 HOWELL, HOUSTON TX 77032",HARRIS,B,IAH / AIRPORT AREA,7.9141E+11,NE,NE,MONDAY,2nd Wednesday,MONDAY-B,374R,,SWM Solid Waste Management,Collections,Container Problem,SWM_CollectionsNE,10,Closed,1/2/2017 8:20,1/12/2017 8:20,1/9/2017 15:55,-2.68,Repair or Replace Damaged or Missing Container-101002444967,3137293.451,13911275.85,29.94960305,-95.30873349,Voice In,77032,7 days 07:35:09.000000000,10 days 00:00:00.000000000,2017
224,12091922-101002444969,"5138 SHADOWRIDGE, HOUSTON TX 77053",FORT BEND,K,FORT BEND HOUSTON,6.25004E+15,SW,SW,FRIDAY,4th Friday,FRIDAY-A,611C,,PWE Public Works Engineering,PU Public Utilities,Sewer Wastewater,PU_WasteWater,1,Closed,1/2/2017 8:22,1/3/2017 8:22,1/2/2017 14:45,-0.73,Sewer Wastewater-101002444969,3091459.777,13777176.03,29.58489754,-95.46618753,Voice In,77053,0 days 06:22:59.000000000,1 days 00:00:00.000000000,2017
225,1.01002E+11,"4617 ENGLEWOOD, HOUSTON TX 77026",HARRIS,B,KASHMERE GARDENS,6.9064E+11,NE,NE,FRIDAY,1st Thursday,FRIDAY-B,454V,,SWM Solid Waste Management,Collections,Container Problem,SWM_CollectionsNE,10,Closed,1/2/2017 8:22,1/12/2017 8:22,1/6/2017 17:05,-5.64,Repair or Replace Damaged or Missing Container-101002444970,3139105.323,13858005.62,29.8030304,-95.30832387,Voice In,77026,4 days 08:42:25.000000000,10 days 00:00:00.000000000,2017
230,1.01002E+11,"4634 CARMEN, HOUSTON TX 77051",HARRIS,D,SUNNYSIDE,8.0067E+11,SE,SE,FRIDAY,4th Friday,FRIDAY-A,573D,HCID #10-A,SWM Solid Waste Management,Collections,Missed Heavy Trash Pickup,SWM_CollectionsSE,7,Closed,1/2/2017 8:28,1/11/2017 8:00,1/4/2017 15:03,-6.71,Missed Heavy Trash Pick Up (alternating Tree and Junk Waste)-101002444975,3125371.516,13804406.89,29.65688895,-95.35687101,Voice In,77051,2 days 06:34:28.000000000,8 days 23:31:12.000000000,2017
232,12091925-101002444978,"11 WARRENTON, HOUSTON TX 77024",HARRIS,G,MEMORIAL,9.3232E+11,,,,,,490N,,PWE Public Works Engineering,Street and Drainage,Street Hazard,ROWM_StreetMain,10,Closed,1/2/2017 8:32,1/12/2017 8:32,1/3/2017 8:50,-8.99,Street Hazard-101002444978,3064926.884,13838088.68,29.75451717,-95.54397124,Voice In,77024,1 days 00:17:30.000000000,10 days 00:00:00.000000000,2017
234,12091927-101002444980,"13923 AMBLE, HOUSTON TX 77085",HARRIS,K,CENTRAL SOUTHWEST,8.5504E+11,SW,SW,FRIDAY,4th Wednesday,FRIDAY-A,571Q,Five Corners HCID #10B,PWE Public Works Engineering,PU Public Utilities,Sewer Wastewater,PU_WasteWater,1,Closed,1/2/2017 8:37,1/3/2017 8:37,1/3/2017 13:00,0.18,Sewer Wastewater-101002444980,3089686.632,13791018.9,29.62309693,-95.47044972,Voice In,77085,1 days 04:23:00.000000000,1 days 00:00:00.000000000,2017
235,1.01002E+11,"5762 THRUSH, HOUSTON TX 77033",HARRIS,D,SOUTH PARK,8.7058E+11,SE,SE,FRIDAY,4th Wednesday,FRIDAY-A,574B,,SWM Solid Waste Management,Collections,Missed Garbage Pickup,SWM_CollectionsSE,4,Closed,1/2/2017 8:41,1/6/2017 8:00,1/6/2017 14:39,0.28,Missed Garbage Collection-101002444981,3132852.648,13805742.62,29.65991764,-95.33319556,Voice In,77033,4 days 05:58:32.000000000,3 days 23:18:37.000000000,2017
236,12091928-101002444982,"5101 KELLEY, HOUSTON TX 77026",HARRIS,B,TRINITY / HOUSTON GARDENS,6.51291E+11,NE,NW,THURSDAY,2nd Friday,THURSDAY-A,454Q,,PWE Public Works Engineering,Street and Drainage,Street Hazard,ROWM_StreetMain,10,Closed,1/2/2017 8:44,1/12/2017 8:44,1/3/2017 9:15,-8.98,Street Hazard-101002444982,3135345.077,13861851.78,29.81392781,-95.31979296,Voice In,77026,1 days 00:30:58.000000000,10 days 00:00:00.000000000,2017
238,12091929-101002444984,"5111 LANTANA, HOUSTON TX 77017",HARRIS,I,MEADOWBROOK / ALLENDALE,7.5239E+11,SE,SE,MONDAY,1st Monday,MONDAY-B,535V,,PWE Public Works Engineering,PU Public Utilities,Sewer Wastewater,PU_WasteWater,1,Closed,1/2/2017 8:48,1/3/2017 8:48,1/4/2017 3:35,0.78,Sewer Wastewater-101002444984,3157076.544,13813463.36,29.67902932,-95.25618263,Voice In,77017,1 days 18:46:14.000000000,1 days 00:00:00.000000000,2017
239,12091930-101002444985,"1728 MARYLAND, HOUSTON TX 77006",HARRIS,C,NEARTOWN - MONTROSE,1.25287E+12,NW,NE,MONDAY,1st Wednesday,MONDAY-A,492V,Montrose Management District,PWE Public Works Engineering,Street and Drainage,Street Hazard,ROWM_StreetMain,10,Closed,1/2/2017 8:49,1/12/2017 8:49,1/2/2017 9:10,-9.99,Street Hazard-101002444985,3110514.885,13836528.41,29.74644729,-95.40051432,Voice In,77006,0 days 00:20:20.000000000,10 days 00:00:00.000000000,2017
241,12091931-101002444987,"13706 WICKERSHAM, HOUSTON TX 77077",HARRIS,G,ELDRIDGE / WEST OAKS,1.00529E+12,,,,,,488T,,PWE Public Works Engineering,PU Public Utilities,Sewer Wastewater,PU_WasteWater,1,Closed,1/2/2017 8:56,1/3/2017 8:56,1/2/2017 20:20,-0.53,Sewer Wastewater-101002444987,3037309.574,13831183.52,29.73775151,-95.63160126,Voice In,77077,0 days 11:23:47.000000000,1 days 00:00:00.000000000,2017
246,1.01002E+11,"8926 LYNDONNILLE FALLS, HOUSTON TX 77078",HARRIS,B,EAST HOUSTON,1.30068E+12,NE,NE,THURSDAY,2nd Monday,THURSDAY-A,455D,,SWM Solid Waste Management,Collections,Container Problem,SWM_CollectionsNE,10,Closed,1/2/2017 9:03,1/12/2017 9:03,1/5/2017 15:57,-6.71,Repair or Replace Damaged or Missing Container-101002444992,3153918.404,13877681.9,29.8558178,-95.2596564,Voice In,77078,3 days 06:53:51.000000000,10 days 00:00:00.000000000,2017
248,1.01002E+11,"751 YORKSHIRE, HOUSTON TX 77022",HARRIS,H,NORTHSIDE/NORTHLINE,6.5064E+11,NE,NE,MONDAY,2nd Friday,MONDAY-B,453L,Greater Northside MD,SWM Solid Waste Management,Collections,Container Problem,SWM_CollectionsNE,10,Closed,1/2/2017 9:05,1/12/2017 9:05,1/9/2017 15:14,-2.74,Repair or Replace Damaged or Missing Container-101002444994,3121908.52,13866588,29.82810179,-95.36167954,Voice In,77022,7 days 06:09:00.000000000,10 days 00:00:00.000000000,2017
253,1.01002E+11,"9425 CONGER, HOUSTON TX 77075",HARRIS,I,GREATER HOBBY AREA,6.3031E+11,SE,SW,THURSDAY,2nd Monday,THURSDAY-B,575H,HCID #9,SWM Solid Waste Management,Recycling,Missed Recycling Pickup,SWM_RecyclingSW,4,Closed,1/2/2017 9:07,1/6/2017 8:00,1/11/2017 10:49,5.12,Missed Recycling Collection Report-101002444999,3160204.937,13800016.32,29.64179221,-95.24769397,Voice In,77075,9 days 01:41:38.000000000,3 days 22:52:24.000000000,2017
260,42419-101002445006,"5514 RUE, HOUSTON TX 77033",HARRIS,D,SOUTH PARK,8.6213E+11,SE,SE,FRIDAY,4th Tuesday,FRIDAY-A,574A,HCID #10-A,NS Neighborhood Services,Investigations,Nuisance On Property,NS_Dispatch,180,Closed,1/2/2017 9:18,9/15/2017 8:00,3/2/2017 12:36,-196.81,"Nuisance on Property - Trash, Substances, Weeds, etc.-101002445006",3130500.71,13802313.99,29.65069579,-95.34093521,Voice In,77033,59 days 03:17:17.000000000,255 days 22:41:12.000000000,2017
266,1.01002E+11,"1811 LEWIS, HOUSTON TX 77009",HARRIS,H,NEAR NORTHSIDE,31910000029,NE,NW,FRIDAY,1st Friday,FRIDAY-B,493G,Greater Northside MD,SWM Solid Waste Management,Collections,Missed Garbage Pickup,SWM_CollectionsNE,4,Closed,1/2/2017 9:25,1/6/2017 8:00,4/25/2017 17:15,109.39,Missed Garbage Collection-101002445012,3122170.097,13847280.95,29.77501118,-95.36274845,Voice In,77009,113 days 07:49:57.000000000,3 days 22:34:41.000000000,2017
267,1.01002E+11,"14635 LAUREL SHADOWS, HOUSTON TX 77062",HARRIS,E,CLEAR LAKE,1.16757E+12,SE,SE,THURSDAY,2nd Wednesday,THURSDAY-B,617H,,SWM Solid Waste Management,Collections,Container Problem,SWM_CollectionsSE,10,Closed,1/2/2017 9:25,1/12/2017 9:25,1/5/2017 13:36,-6.83,Repair or Replace Damaged or Missing Container-101002445013,3193111.698,13778349.9,29.57929638,-95.14640199,Voice In,77062,3 days 04:10:53.000000000,10 days 00:00:00.000000000,2017
268,12091961-101002445014,"1609 BINGHAM, HOUSTON TX 77007",HARRIS,H,WASHINGTON AVENUE COALITION / MEMORIAL P,51150000009,NW,NW,MONDAY,1st Wednesday,MONDAY-A,493F,,PWE Public Works Engineering,PU Public Utilities,Sewer Wastewater,PU_WasteWater,1,Closed,1/2/2017 9:27,1/3/2017 9:27,1/2/2017 22:20,-0.46,Sewer Wastewater-101002445014,3118625.841,13845808.2,29.7712657,-95.3740594,Voice In,77007,0 days 12:52:48.000000000,1 days 00:00:00.000000000,2017
273,1.01002E+11,"1802 NICHOLSON, HOUSTON TX 77008",HARRIS,C,GREATER HEIGHTS,2.0096E+11,NW,NE,THURSDAY,3rd Wednesday,THURSDAY-B,452V,,SWM Solid Waste Management,Collections,Container Problem,SWM_CollectionsNW,10,Closed,1/2/2017 9:29,1/12/2017 9:29,2/2/2017 17:56,21.35,Repair or Replace Damaged or Missing Container,NULL,NULL,29.80197869,-95.40551663,WEB,77008,31 days 08:26:31.000000000,10 days 00:00:00.000000000,2017
280,12091946-101002445026,"1717 CHANTILLY, HOUSTON TX 77018",HARRIS,C,CENTRAL NORTHWEST,7.31E+11,NW,NE,TUESDAY,3rd Thursday,TUESDAY-B,452J,,PWE Public Works Engineering,PU Public Utilities,Sewer Wastewater,PU_WasteWater,1,Closed,1/2/2017 9:36,1/3/2017 9:36,1/2/2017 11:30,-0.92,Sewer Wastewater-101002445026,3095856.901,13865834.68,29.82823436,-95.44387797,Voice In,77018,0 days 01:53:12.000000000,1 days 00:00:00.000000000,2017
284,12091949-101002445030,"4315 LEFFINGWELL, HOUSTON TX 77026",HARRIS,B,KASHMERE GARDENS,6.6003E+11,NE,NW,FRIDAY,1st Thursday,FRIDAY-B,454X,,PWE Public Works Engineering,PU Public Utilities,Sewer Wastewater,PU_WasteWater,1,Closed,1/2/2017 9:38,1/3/2017 9:38,1/2/2017 14:55,-0.78,Sewer Wastewater-101002445030,3132357.101,13856620.22,29.79980646,-95.32972844,Voice In,77026,0 days 05:16:54.000000000,1 days 00:00:00.000000000,2017
287,1.01002E+11,"2010 PASADENA, HOUSTON TX 77023",HARRIS,I,LAWNDALE / WAYSIDE,1.4195E+11,SE,SE,MONDAY,1st Tuesday,MONDAY-B,534D,East End MD,SWM Solid Waste Management,Collections,Container Problem,SWM_CollectionsSE,10,Closed,1/2/2017 9:40,1/12/2017 9:40,1/3/2017 6:50,-9.12,Repair or Replace Damaged or Missing Container-101002445034,3142860.474,13828096.13,29.72049389,-95.29947292,Voice In,77023,0 days 21:09:23.000000000,9 days 23:59:59.000000000,2017
289,1.01002E+11,"5135 CANYON BLANCO, HOUSTON TX 77045",HARRIS,K,CENTRAL SOUTHWEST,1.26988E+12,SW,SW,FRIDAY,4th Monday,FRIDAY-B,571G,Five Corners HCID #10B,SWM Solid Waste Management,Recycling,Missed Recycling Pickup,SWM_RecyclingSW,4,Closed,1/2/2017 9:42,1/6/2017 8:00,1/11/2017 10:51,5.12,Missed Recycling Collection Report-101002445036,3093096.724,13798012.25,29.64203711,-95.45905477,Voice In,77045,9 days 01:08:51.000000000,3 days 22:17:46.000000000,2017
293,1.01002E+11,"4126 S ACRES, HOUSTON TX 77047",HARRIS,D,SOUTH ACRES / CRESTMONT PARK,8.511E+11,SE,SE,FRIDAY,4th Friday,FRIDAY-B,573G,HCID #10-A,SWM Solid Waste Management,Collections,Container Problem,SWM_CollectionsSE,10,Closed,1/2/2017 9:45,1/12/2017 9:45,1/3/2017 15:55,-8.74,Repair or Replace Damaged or Missing Container-101002445040,3123941.392,13798919.86,29.64192885,-95.36190909,Voice In,77047,1 days 06:09:51.000000000,10 days 00:00:00.000000000,2017
297,12091956-101002445044,"13015 KINGSTON POINT, HOUSTON TX 77047",HARRIS,D,CENTRAL SOUTHWEST,1.27502E+12,SW,SW,FRIDAY,4th Thursday,FRIDAY-B,572R,Five Corners HCID #10B,PWE Public Works Engineering,PU Public Utilities,Sewer Wastewater,PU_WasteWater,1,Closed,1/2/2017 9:47,1/3/2017 9:47,1/2/2017 10:45,-0.96,Sewer Wastewater-101002445044,3109734.779,13789899.19,29.61834052,-95.40748476,Voice In,77047,0 days 00:57:08.000000000,0 days 23:59:59.000000000,2017
299,1.01002E+11,"8310 VENNARD, HOUSTON TX 77034",HARRIS,E,EDGEBROOK AREA,8.1385E+11,SE,SW,THURSDAY,2nd Tuesday,THURSDAY-B,576K,,SWM Solid Waste Management,Collections,Container Problem,SWM_CollectionsSE,10,Closed,1/2/2017 9:49,1/12/2017 9:49,1/4/2017 5:49,-8.17,Repair or Replace Damaged or Missing Container-101002445046,3166096.604,13799200.14,29.63902776,-95.22923861,Voice In,77034,1 days 19:59:34.000000000,9 days 23:59:59.000000000,2017
300,12091957-101002445047,"3916 BUTE, HOUSTON TX 77006",HARRIS,C,NEARTOWN - MONTROSE,82680000007,NW,NW,MONDAY,1st Wednesday,MONDAY-A,493T,Montrose Management District,PWE Public Works Engineering,PU Public Utilities,Sewer Wastewater,PU_WasteWater,1,Closed,1/2/2017 9:50,1/3/2017 9:50,1/2/2017 15:50,-0.75,Sewer Wastewater-101002445047,3115644.11,13833441.97,29.73752853,-95.38465856,Voice In,77006,0 days 05:59:28.000000000,1 days 00:00:00.000000000,2017
305,1.01002E+11,"13534 VICKSBURG, HOUSTON TX 77015",HARRIS,E,NORTHSHORE,7.5085E+11,NE,NE,THURSDAY,1st Monday,THURSDAY-A,497F,,SWM Solid Waste Management,Collections,Container Problem,SWM_CollectionsNE,10,Closed,1/2/2017 9:56,1/12/2017 9:56,1/12/2017 16:10,0.26,Repair or Replace Damaged or Missing Container-101002445052,3179126.559,13849299.92,29.77556978,-95.18309488,Voice In,77015,10 days 06:13:33.000000000,10 days 00:00:00.000000000,2017
310,1.01002E+11,"907 WAKEFIELD, HOUSTON TX 77018",HARRIS,C,CENTRAL NORTHWEST,1.24601E+12,NW,NE,TUESDAY,3rd Thursday,TUESDAY-B,452Q,,SWM Solid Waste Management,Collections,Storm Debris Collection,SWM_CollectionsNE,5,Closed,1/2/2017 9:59,1/7/2017 9:59,4/25/2017 17:18,108.3,Storm Debris Collection - authorized by Director-101002445057,3103264.795,13863526.93,29.82126975,-95.42074786,Voice In,77018,113 days 07:19:05.000000000,5 days 00:00:00.000000000,2017
312,1.01002E+11,"7915 BELLFORT, HOUSTON TX 77061",HARRIS,I,GOLFCREST / BELLFORT / REVEILLE,8.2567E+11,SE,SE,TUESDAY,3rd Wednesday,TUESDAY-A,535T,HCID #9,SWM Solid Waste Management,Collections,Container Problem,SWM_CollectionsSE,10,Closed,1/2/2017 10:01,1/12/2017 10:01,1/3/2017 15:50,-8.76,Repair or Replace Damaged or Missing Container-101002445059,3151475.487,13811004.95,29.67276381,-95.27405968,Voice In,77061,1 days 05:48:55.000000000,9 days 23:59:58.000000000,2017
315,12091965-101002445062,"2409 TIDWELL, HOUSTON TX 77093",HARRIS,B,EASTEX - JENSEN AREA,7.3151E+11,NE,NE,MONDAY,2nd Thursday,MONDAY-B,454A,Greater Northside MD,PWE Public Works Engineering,PU Public Utilities,Sewer Wastewater,PU_WasteWater,1,Closed,1/2/2017 10:05,1/3/2017 10:05,1/20/2017 5:40,16.82,Sewer Wastewater-101002445062,3126315.629,13874108.98,29.84839628,-95.34704597,Voice In,77093,17 days 19:34:57.000000000,1 days 00:00:00.000000000,2017
317,12091966-101002445064,"1300 WESTHEIMER, HOUSTON TX 77006",,C,NEARTOWN - MONTROSE,,NW,NE,MONDAY,1st Wednesday,MONDAY-A,493S,Montrose Management District,PWE Public Works Engineering,Street and Drainage,Street Hazard,ROWM_StreetMain,10,Closed,1/2/2017 10:06,1/12/2017 10:06,1/2/2017 10:20,-9.99,Street Hazard-101002445064,3112430.103,13835752.19,29.74415146,-95.39455701,Voice In,77006,0 days 00:13:29.000000000,10 days 00:00:00.000000000,2017
324,1.01002E+11,"2515 CHURCHILL, HOUSTON TX 77009",HARRIS,H,NEAR NORTHSIDE,32390000010,NE,NW,FRIDAY,1st Friday,FRIDAY-B,493C,Greater Northside MD,SWM Solid Waste Management,Collections,Container Problem,SWM_CollectionsNE,10,Closed,1/2/2017 10:15,1/12/2017 10:15,1/20/2017 16:59,8.28,Repair or Replace Damaged or Missing Container-101002445071,3120912.319,13849956.46,29.78247277,-95.36644938,Voice In,77009,18 days 06:44:40.000000000,10 days 00:00:00.000000000,2017
325,12091970-101002445073,"11612 LANGDON, HOUSTON TX 77072",HARRIS,F,ALIEF,1.01043E+12,SW,SW,MONDAY,1st Wednesday,MONDAY-B,529K,International MD,PWE Public Works Engineering,PU Public Utilities,Sewer Wastewater,PU_WasteWater,1,Closed,1/2/2017 10:16,1/3/2017 10:16,1/2/2017 13:45,-0.86,Sewer Wastewater-101002445073,3053060.855,13814725.15,29.69125302,-95.5835033,Voice In,77072,0 days 03:28:35.000000000,0 days 23:59:58.000000000,2017
326,1.01002E+11,"2330 SUNSET, HOUSTON TX 77005",HARRIS,C,UNIVERSITY PLACE,5.913E+11,SW,SE,TUESDAY,3rd Monday,TUESDAY-B,532C,,SWM Solid Waste Management,Collections,Container Problem,SWM_CollectionsSW,10,Closed,1/2/2017 10:18,1/12/2017 10:18,1/5/2017 16:09,-6.76,Repair or Replace Damaged or Missing Container-101002445074,3106463.472,13827954.27,29.7232215,-95.41410419,Voice In,77005,3 days 05:50:56.000000000,10 days 00:00:00.000000000,2017
327,12091971-101002445075,"1406 BINGHAM, HOUSTON TX 77007",HARRIS,H,WASHINGTON AVENUE COALITION / MEMORIAL P,51000000002,NW,NW,MONDAY,1st Wednesday,MONDAY-A,493G,,PWE Public Works Engineering,PU Public Utilities,Sewer Wastewater,PU_WasteWater,1,Closed,1/2/2017 10:19,1/3/2017 10:19,1/2/2017 20:15,-0.59,Sewer Wastewater-101002445075,3119430.032,13846016.39,29.77176935,-95.37150534,Voice In,77007,0 days 09:55:46.000000000,1 days 00:00:00.000000000,2017
330,12091973-101002445079,"13715 OVERBROOK, HOUSTON TX 77077",HARRIS,G,ELDRIDGE / WEST OAKS,1.00529E+12,,,,,,488T,,PWE Public Works Engineering,PU Public Utilities,Sewer Wastewater,PU_WasteWater,1,Closed,1/2/2017 10:21,1/3/2017 10:21,1/2/2017 20:25,-0.58,Sewer Wastewater-101002445079,3037308.374,13831397.06,29.73833861,-95.63158566,Voice In,77077,0 days 10:03:13.000000000,1 days 00:00:00.000000000,2017
331,1.01002E+11,"132 HOFFMAN, HOUSTON TX 77020",HARRIS,H,DENVER HARBOR / PORT HOUSTON,6.2045E+11,NE,NE,FRIDAY,1st Tuesday,FRIDAY-B,494D,,SWM Solid Waste Management,Collections,Container Problem,SWM_CollectionsNE,10,Closed,1/2/2017 10:23,1/12/2017 10:23,1/30/2017 17:10,18.28,Repair or Replace Damaged or Missing Container-101002445080,3138545.932,13851764.46,29.7859244,-95.31070751,Voice In,77020,28 days 06:46:55.000000000,9 days 23:59:59.000000000,2017
334,12091974-101002445083,"8538 BUCROFT, HOUSTON TX 77029",HARRIS,B,PLEASANTVILLE AREA,8.5327E+11,NE,NE,FRIDAY,1st Tuesday,FRIDAY-B,495Q,,PWE Public Works Engineering,PU Public Utilities,Sewer Wastewater,PU_WasteWater,1,Closed,1/2/2017 10:27,1/3/2017 10:27,1/3/2017 21:20,0.45,Sewer Wastewater-101002445083,3150856.898,13841669.18,29.75710308,-95.27292982,Voice In,77029,1 days 10:52:56.000000000,1 days 00:00:00.000000000,2017
335,1.01002E+11,"4938 1ST, HOUSTON TX 77504",HARRIS,E,SOUTH BELT / ELLINGTON,6.4023E+11,SE,SW,THURSDAY,2nd Tuesday,THURSDAY-B,576M,,SWM Solid Waste Management,Collections,Missed Heavy Trash Pickup,SWM_CollectionsSE,7,Closed,1/2/2017 10:27,1/11/2017 8:00,1/4/2017 15:17,-6.7,Missed Heavy Trash Pick Up (alternating Tree and Junk Waste)-101002445084,3173782.554,13798234.33,29.63541658,-95.20513147,Voice In,77504,2 days 04:50:12.000000000,8 days 21:32:26.000000000,2017
338,12091977-101002445087,"4815 LIGONBERRY, HOUSTON TX 77033",HARRIS,D,SUNNYSIDE,8.5277E+11,SE,SE,FRIDAY,4th Thursday,FRIDAY-A,533V,HCID #10-A,PWE Public Works Engineering,PU Public Utilities,Sewer Wastewater,PU_WasteWater,1,Closed,1/2/2017 10:30,1/3/2017 10:30,2/8/2017 0:55,35.6,Sewer Wastewater-101002445087,3126508.323,13811450.77,29.67615329,-95.35260181,Voice In,77033,36 days 14:24:19.000000000,1 days 00:00:00.000000000,2017
342,1.01002E+11,"13214 FOXLEIGH, HOUSTON TX 77049",HARRIS,I,HUNTERWOOD,1.14933E+12,NE,NE,THURSDAY,1st Monday,THURSDAY-A,456Q,,SWM Solid Waste Management,Collections,Container Problem,SWM_CollectionsNE,10,Closed,1/2/2017 10:34,1/12/2017 10:34,1/19/2017 17:38,7.29,Repair or Replace Damaged or Missing Container-101002445091,3168967.919,13863400.29,29.81523296,-95.21366214,Voice In,77049,17 days 07:03:47.000000000,9 days 23:59:58.000000000,2017
343,12091979-101002445092,"5317 CLAREMONT, HOUSTON TX 77023",HARRIS,I,GREATER EASTWOOD,5.3004E+11,SE,SE,MONDAY,1st Wednesday,MONDAY-A,494Y,East End MD,PWE Public Works Engineering,PU Public Utilities,Sewer Wastewater,PU_WasteWater,1,Closed,1/2/2017 10:35,1/3/2017 10:35,1/4/2017 3:35,0.71,Sewer Wastewater-101002445092,3135704.647,13831216.43,29.72969125,-95.32169759,Voice In,77023,1 days 16:59:22.000000000,1 days 00:00:00.000000000,2017
345,1.01002E+11,"1819 DECATUR, HOUSTON TX 77007",HARRIS,H,WASHINGTON AVENUE COALITION / MEMORIAL P,52260000018,NW,NE,MONDAY,1st Wednesday,MONDAY-A,493K,,SWM Solid Waste Management,Collections,Container Problem,SWM_CollectionsNW,10,Closed,1/2/2017 10:38,1/12/2017 10:38,2/7/2017 18:16,26.32,Repair or Replace Damaged or Missing Container,NULL,NULL,29.76674126,-95.37698342,WEB,77007,36 days 07:37:35.000000000,10 days 00:00:00.000000000,2017
350,12091982-101002445099,"5110 CLAY, HOUSTON TX 77023",HARRIS,I,GREATER EASTWOOD,5.4306E+11,SE,SE,MONDAY,1st Wednesday,MONDAY-A,494X,East End MD,PWE Public Works Engineering,PU Public Utilities,Sewer Wastewater,PU_WasteWater,1,Closed,1/2/2017 10:41,1/3/2017 10:41,1/4/2017 3:35,0.7,Sewer Wastewater-101002445099,3134866.567,13832946.54,29.7345192,-95.32416565,Voice In,77023,1 days 16:54:04.000000000,1 days 00:00:00.000000000,2017
353,12091983-101002445102,"16323 DETRIC, HOUSTON TX 77053",FORT BEND,K,FORT BEND HOUSTON,6.25004E+15,SW,SW,FRIDAY,4th Friday,FRIDAY-A,611C,,PWE Public Works Engineering,PU Public Utilities,Sewer Wastewater,PU_WasteWater,1,Closed,1/2/2017 10:46,1/3/2017 10:46,1/2/2017 14:45,-0.83,Sewer Wastewater-101002445102,3091536.276,13777984.83,29.58711448,-95.46587005,Voice In,77053,0 days 03:58:15.000000000,0 days 23:59:59.000000000,2017
354,1.01002E+11,"4205 WATSON, HOUSTON TX 77009",HARRIS,H,GREATER HEIGHTS,5.9027E+11,NW,NW,THURSDAY,3rd Wednesday,THURSDAY-A,453X,Greater Northside MD,SWM Solid Waste Management,Collections,Missed Garbage Pickup,SWM_CollectionsNW,4,Closed,1/2/2017 10:47,1/6/2017 8:00,1/5/2017 8:05,-1,Missed Garbage Collection-101002445103,3115919.818,13854540.18,29.79549746,-95.38173366,Voice In,77009,2 days 21:17:44.000000000,3 days 21:12:44.000000000,2017
356,12091984-101002445105,"436 W 21ST, HOUSTON TX 77008",HARRIS,C,GREATER HEIGHTS,2.008E+11,NW,NE,THURSDAY,3rd Wednesday,THURSDAY-B,452V,,PWE Public Works Engineering,PU Public Utilities,Sewer Wastewater,PU_WasteWater,1,Closed,1/2/2017 10:49,1/3/2017 10:49,1/2/2017 20:15,-0.61,Sewer Wastewater-101002445105,3108354.78,13857619.75,29.80460361,-95.40527574,Voice In,77008,0 days 09:26:01.000000000,1 days 00:00:00.000000000,2017
358,12091985-101002445107,"2311 KINGS FOREST, HOUSTON TX 77339",HARRIS,E,KINGWOOD AREA,1.05565E+12,,,,,,336D,,PWE Public Works Engineering,PU Public Utilities,Sewer Wastewater,PU_WasteWater,1,Closed,1/2/2017 10:50,1/3/2017 10:50,1/3/2017 14:50,0.17,Sewer Wastewater-101002445107,3166031.094,13948831.84,30.05029601,-95.21419912,Voice In,77339,1 days 03:59:58.000000000,1 days 00:00:00.000000000,2017
359,12091986-101002445108,"12027 POMPTON, HOUSTON TX 77089",HARRIS,D,SOUTH BELT / ELLINGTON,1.0512E+12,SE,SE,THURSDAY,2nd Thursday,THURSDAY-B,617A,,PWE Public Works Engineering,PU Public Utilities,Sewer Wastewater,PU_WasteWater,1,Closed,1/2/2017 10:50,1/3/2017 10:50,1/2/2017 20:20,-0.6,Sewer Wastewater-101002445108,3177636.706,13781604.71,29.58963598,-95.19473086,Voice In,77089,0 days 09:29:17.000000000,1 days 00:00:00.000000000,2017
360,1.01002E+11,"3106 CRANE, HOUSTON TX 77026",HARRIS,B,KASHMERE GARDENS,1.217E+11,NE,NW,FRIDAY,1st Thursday,FRIDAY-B,454W,,SWM Solid Waste Management,Collections,Container Problem,SWM_CollectionsNE,10,Closed,1/2/2017 10:53,1/12/2017 10:53,1/10/2017 14:54,-1.83,Repair or Replace Damaged or Missing Container-101002445109,3129691.354,13855224.97,29.79620119,-95.33826721,Voice In,77026,8 days 04:01:12.000000000,10 days 00:00:00.000000000,2017
361,12091987-101002445110,"3419 OAKDALE, HOUSTON TX 77004",HARRIS,D,MACGREGOR,6.2049E+11,SE,SW,TUESDAY,3rd Friday,TUESDAY-A,533G,Greater Southeast MD,PWE Public Works Engineering,PU Public Utilities,Sewer Wastewater,PU_WasteWater,1,Closed,1/2/2017 10:53,1/3/2017 10:53,1/3/2017 12:40,0.07,Sewer Wastewater-101002445110,3122928.445,13825061.47,29.71387191,-95.36253721,Voice In,77004,1 days 01:46:04.000000000,1 days 00:00:00.000000000,2017
362,12091988-101002445111,"6937 VAN ETTEN, HOUSTON TX 77021",HARRIS,D,MACGREGOR,6.8017E+11,SW,SE,THURSDAY,3rd Monday,THURSDAY-A,533K,,PWE Public Works Engineering,PU Public Utilities,Sewer Wastewater,PU_WasteWater,1,Closed,1/2/2017 10:54,1/3/2017 10:54,1/3/2017 14:30,0.15,Sewer Wastewater-101002445111,3116715.597,13819783.86,29.69989505,-95.3826148,Voice In,77021,1 days 03:35:31.000000000,1 days 00:00:00.000000000,2017
363,12091990-101002445112,"4511 WINDY GORGE, HOUSTON TX 77345",HARRIS,E,KINGWOOD AREA,1.17622E+12,,,,,,297Q,,PWE Public Works Engineering,PU Public Utilities,Sewer Wastewater,PU_WasteWater,1,Closed,1/2/2017 10:55,1/3/2017 10:55,1/3/2017 11:05,0.01,Sewer Wastewater-101002445112,3177458.948,13959037.78,30.07732277,-95.17704311,Voice In,77345,1 days 00:09:11.000000000,1 days 00:00:00.000000000,2017
365,12091989-101002445114,"10322 BLADES, HOUSTON TX 77016",HARRIS,B,EAST LITTLE YORK / HOMESTEAD,8.2511E+11,NE,NW,TUESDAY,2nd Tuesday,TUESDAY-A,415W,,PWE Public Works Engineering,PU Public Utilities,Sewer Wastewater,PU_WasteWater,1,Closed,1/2/2017 10:56,1/3/2017 10:56,1/3/2017 12:15,0.05,Sewer Wastewater-101002445114,3142660.616,13880039.46,29.86328288,-95.29491857,Voice In,77016,1 days 01:18:39.000000000,1 days 00:00:00.000000000,2017
366,42423-101002445115,"13030 CULLEN, HOUSTON TX 77047",HARRIS,D,SOUTH ACRES / CRESTMONT PARK,2.6112E+11,SE,SE,FRIDAY,4th Friday,FRIDAY-B,573R,Five Corners HCID #10B,NS Neighborhood Services,Investigations,Nuisance On Property,NS_Dispatch,180,Closed,1/2/2017 10:57,9/15/2017 8:00,1/19/2017 14:49,-238.72,"Nuisance on Property - Trash, Substances, Weeds, etc.",NULL,NULL,29.61994694,-95.35674924,WEB,77047,17 days 03:52:15.000000000,255 days 21:02:52.000000000,2017
368,1.01002E+11,"7238 SAINT LOUIS, HOUSTON TX 77028",HARRIS,B,TRINITY / HOUSTON GARDENS,7.3064E+11,NE,NW,THURSDAY,2nd Tuesday,THURSDAY-A,455N,,SWM Solid Waste Management,Collections,Container Problem,SWM_CollectionsNE,10,Closed,1/2/2017 10:57,1/12/2017 10:57,1/5/2017 15:58,-6.79,Repair or Replace Damaged or Missing Container-101002445117,3142165.9,13863753.53,29.81856307,-95.29810475,Voice In,77028,3 days 05:00:53.000000000,9 days 23:59:59.000000000,2017
378,12091995-101002445127,"4654 MERWIN, HOUSTON TX 77027",HARRIS,G,AFTON OAKS / RIVER OAKS AREA,7.7246E+11,,,,,,491Z,,PWE Public Works Engineering,PU Public Utilities,Water Leak,PU_Water,10,Closed,1/2/2017 11:06,1/12/2017 11:06,1/2/2017 13:45,-9.89,Water Leak-101002445127,3093585.018,13830480.19,29.73124427,-95.45441992,Voice In,77027,0 days 02:38:43.000000000,9 days 23:59:59.000000000,2017
380,12091997-101002445129,"4930 EPPES, HOUSTON TX 77021",HARRIS,D,GREATER OST / SOUTH UNION,7.0042E+11,SE,SW,TUESDAY,3rd Thursday,TUESDAY-A,534J,Greater Southeast MD,PWE Public Works Engineering,PU Public Utilities,Sewer Wastewater,PU_WasteWater,1,Closed,1/2/2017 11:08,1/3/2017 11:08,1/4/2017 3:40,0.69,Sewer Wastewater-101002445129,3130074.589,13820250.53,29.70003505,-95.3405094,Voice In,77021,1 days 16:31:17.000000000,1 days 00:00:00.000000000,2017
381,12091996-101002445130,"6403 NEWQUAY, HOUSTON TX 77085",HARRIS,K,CENTRAL SOUTHWEST,9.5288E+11,SW,SW,FRIDAY,4th Wednesday,FRIDAY-A,571P,Five Corners HCID #10B,PWE Public Works Engineering,PU Public Utilities,Sewer Wastewater,PU_WasteWater,1,Closed,1/2/2017 11:09,1/3/2017 11:09,1/23/2017 18:50,20.32,Sewer Wastewater-101002445130,3086665.485,13789580.31,29.61939282,-95.48009095,Voice In,77085,21 days 07:40:51.000000000,1 days 00:00:00.000000000,2017
385,12092001-101002445134,"13702 WICKERSHAM, HOUSTON TX 77077",HARRIS,G,ELDRIDGE / WEST OAKS,1.00529E+12,,,,,,488T,,PWE Public Works Engineering,PU Public Utilities,Sewer Wastewater,PU_WasteWater,1,Closed,1/2/2017 11:14,1/3/2017 11:14,1/2/2017 20:20,-0.62,Sewer Wastewater-101002445134,3037322.675,13831097.18,29.73751315,-95.63156782,Voice In,77077,0 days 09:05:16.000000000,0 days 23:59:59.000000000,2017
388,1.01002E+11,"9221 ASHVILLE, HOUSTON TX 77051",HARRIS,D,SUNNYSIDE,7.7185E+11,SE,SE,FRIDAY,4th Friday,FRIDAY-A,573B,HCID #10-A,SWM Solid Waste Management,Collections,Missed Heavy Trash Pickup,SWM_CollectionsSE,7,Closed,1/2/2017 11:15,1/11/2017 8:00,1/4/2017 15:02,-6.71,Missed Heavy Trash Pick Up (alternating Tree and Junk Waste)-101002445137,3120676.523,13804374.94,29.65720245,-95.37164973,Voice In,77051,2 days 03:46:27.000000000,8 days 20:44:09.000000000,2017
390,1.01002E+11,"5959 GLENHURST, HOUSTON TX 77033",HARRIS,D,SOUTH PARK,7.903E+11,SE,SE,FRIDAY,4th Wednesday,FRIDAY-A,534T,,SWM Solid Waste Management,Collections,Container Problem,SWM_CollectionsSE,10,Closed,1/2/2017 11:19,1/12/2017 11:19,1/3/2017 15:53,-8.81,Repair or Replace Damaged or Missing Container-101002445139,3133953.83,13809929.29,29.67133065,-95.32931629,Voice In,77033,1 days 04:33:13.000000000,9 days 23:59:59.000000000,2017
393,12092000-101002445142,"10313 CAXTON, HOUSTON TX 77016",HARRIS,B,EAST LITTLE YORK / HOMESTEAD,8.0097E+11,NE,NW,TUESDAY,2nd Thursday,TUESDAY-A,414Y,,PWE Public Works Engineering,PU Public Utilities,Sewer Wastewater,PU_WasteWater,1,Closed,1/2/2017 11:21,1/3/2017 11:21,1/18/2017 15:15,15.16,Sewer Wastewater-101002445142,3136977.889,13878988.89,29.86088913,-95.31294307,Voice In,77016,16 days 03:53:48.000000000,1 days 00:00:00.000000000,2017
394,1.01002E+11,"14119 REO, HOUSTON TX 77080",HARRIS,A,LANGWOOD,8.414E+11,NW,NW,FRIDAY,4th Thursday,FRIDAY-A,451N,Spring Branch MD,SWM Solid Waste Management,Collections,Missed Garbage Pickup,SWM_CollectionsNW,4,Closed,1/2/2017 11:24,1/6/2017 8:00,1/6/2017 7:01,-0.04,Missed Garbage Collection-101002445143,3078540.948,13862901.65,29.82160886,-95.49874323,Voice In,77080,3 days 19:36:24.000000000,3 days 20:35:22.000000000,2017
395,1.01002E+11,"7221 KINNEY, HOUSTON TX 77087",HARRIS,I,GOLFCREST / BELLFORT / REVEILLE,5.907E+11,SE,SE,TUESDAY,3rd Wednesday,TUESDAY-A,534R,,SWM Solid Waste Management,Collections,Container Problem,SWM_CollectionsSE,10,Closed,1/2/2017 11:24,1/12/2017 11:24,1/3/2017 15:49,-8.82,Repair or Replace Damaged or Missing Container-101002445144,3143225.318,13816008.14,29.6872362,-95.29952885,Voice In,77087,1 days 04:24:09.000000000,9 days 23:59:59.000000000,2017
396,12092002-101002445145,"3412 WICHITA, HOUSTON TX 77004",HARRIS,D,MACGREGOR,6.2049E+11,SE,SW,TUESDAY,3rd Friday,TUESDAY-A,533C,Greater Southeast MD,PWE Public Works Engineering,PU Public Utilities,Sewer Wastewater,PU_WasteWater,1,Closed,1/2/2017 11:25,1/3/2017 11:25,1/2/2017 13:45,-0.9,Sewer Wastewater-101002445145,3123032.363,13825779.2,29.71583585,-95.36213966,Voice In,77004,0 days 02:19:30.000000000,1 days 00:00:00.000000000,2017
398,1.01002E+11,"4724 GUNTER, HOUSTON TX 77020",HARRIS,B,GREATER FIFTH WARD,6.1049E+11,NE,NW,FRIDAY,1st Thursday,FRIDAY-B,494L,,SWM Solid Waste Management,Collections,Missed Garbage Pickup,SWM_CollectionsNE,4,Closed,1/2/2017 11:28,1/6/2017 8:00,4/25/2017 17:18,109.39,Missed Garbage Collection-101002445147,3135073.862,13845325.71,29.76852735,-95.32228635,Voice In,77020,113 days 05:49:46.000000000,3 days 20:31:25.000000000,2017
407,12092009-101002445156,"12323 CHESTERBROOK, HOUSTON TX 77031",HARRIS,K,BRAYS OAKS,1.0592E+12,SW,SW,THURSDAY,2nd Friday,THURSDAY-A,569H,HCID #5 (Brays Oaks),PWE Public Works Engineering,PU Public Utilities,Sewer Wastewater,PU_WasteWater,1,Closed,1/2/2017 11:39,1/3/2017 11:39,1/3/2017 14:00,0.1,Sewer Wastewater-101002445156,3064890.103,13797589.51,29.64319389,-95.54785418,Voice In,77031,1 days 02:20:58.000000000,1 days 00:00:00.000000000,2017
408,12092008-101002445157,"11926 HIGH STAR, HOUSTON TX 77072",HARRIS,F,ALIEF,1.14255E+12,SW,SW,MONDAY,1st Thursday,MONDAY-A,529E,,PWE Public Works Engineering,PU Public Utilities,Sewer Wastewater,PU_WasteWater,1,Closed,1/2/2017 11:39,1/3/2017 11:39,1/2/2017 16:25,-0.8,Sewer Wastewater-101002445157,3050950.302,13821908.74,29.71116923,-95.5894883,Voice In,77072,0 days 04:45:33.000000000,1 days 00:00:00.000000000,2017
410,1.01002E+11,"8502 CARLOS, HOUSTON TX 77029",HARRIS,B,PLEASANTVILLE AREA,7.1039E+11,NE,NE,FRIDAY,1st Tuesday,FRIDAY-B,455X,,SWM Solid Waste Management,Collections,Container Problem,SWM_CollectionsNE,10,Closed,1/2/2017 11:41,1/12/2017 11:41,1/6/2017 17:04,-5.78,Repair or Replace Damaged or Missing Container-101002445159,3148987.119,13856267.48,29.79739171,-95.27735556,Voice In,77029,4 days 05:22:46.000000000,10 days 00:00:00.000000000,2017
413,12092013-101002445162,"7302 YOE, HOUSTON TX 77016",HARRIS,B,EAST LITTLE YORK / HOMESTEAD,8.2525E+11,NE,NW,TUESDAY,2nd Tuesday,TUESDAY-A,415W,,PWE Public Works Engineering,Street and Drainage,Street Hazard,ROWM_StreetMain,10,Closed,1/2/2017 11:43,1/12/2017 11:43,1/3/2017 8:35,-9.13,Street Hazard-101002445162,3142448.533,13878007.51,29.85771647,-95.29579037,Voice In,77016,0 days 20:51:14.000000000,10 days 00:00:00.000000000,2017
414,12092014-101002445163,"5113 SOUTHWIND, HOUSTON TX 77033",HARRIS,D,SOUTH PARK,7.519E+11,SE,SE,FRIDAY,4th Thursday,FRIDAY-A,534S,HCID #10-A,PWE Public Works Engineering,PU Public Utilities,Sewer Wastewater,PU_WasteWater,1,Closed,1/2/2017 11:46,1/3/2017 11:46,1/4/2017 3:35,0.66,Sewer Wastewater-101002445163,3128712.202,13811793.1,29.6769051,-95.34563105,Voice In,77033,1 days 15:48:53.000000000,1 days 00:00:00.000000000,2017
416,42427-101002445166,"1113 VALENTINE, HOUSTON TX 77019",HARRIS,C,FOURTH WARD,1.28179E+12,NW,NE,MONDAY,1st Wednesday,MONDAY-A,493P,,NS Neighborhood Services,Investigations,Nuisance On Property,NS_Dispatch,180,Closed,1/2/2017 11:48,9/15/2017 8:00,5/10/2017 12:15,-127.82,Nuisance On Property - 169272,3117323.975,13840439.74,29.75663714,-95.37860124,WAP,77019,128 days 00:27:41.000000000,255 days 20:11:52.000000000,2017
417,42426-101002445165,"1101 ANDREWS, HOUSTON TX 77019",HARRIS,C,FOURTH WARD,50130000001,NW,NE,MONDAY,1st Wednesday,MONDAY-A,493P,,NS Neighborhood Services,Investigations,Nuisance On Property,NS_Dispatch,180,Closed,1/2/2017 11:48,9/15/2017 8:00,1/3/2017 9:45,-254.93,Nuisance On Property - 169271,3117333.773,13840045.21,29.75561121,-95.37880735,WAP,77019,0 days 21:57:51.000000000,255 days 20:11:52.000000000,2017
418,42428-101002445167,"1019 RUTHVEN, HOUSTON TX 77019",HARRIS,C,FOURTH WARD,50110000004,NW,NE,MONDAY,1st Wednesday,MONDAY-A,493P,,NS Neighborhood Services,Investigations,Nuisance On Property,NS_Dispatch,180,Closed,1/2/2017 11:48,9/15/2017 8:00,5/10/2017 12:15,-127.82,Nuisance On Property - 169270,3117348.09,13839895.77,29.75508525,-95.37852752,WAP,77019,128 days 00:27:41.000000000,255 days 20:11:50.000000000,2017
421,1.01002E+11,"5722 THRUSH, HOUSTON TX 77033",HARRIS,D,SOUTH PARK,8.7058E+11,SE,SE,FRIDAY,4th Wednesday,FRIDAY-A,574A,,SWM Solid Waste Management,Collections,Missed Garbage Pickup,SWM_CollectionsSE,4,Closed,1/2/2017 11:52,1/6/2017 8:00,1/6/2017 14:39,0.28,Missed Garbage Collection-101002445170,3132206.077,13805684.32,29.65981312,-95.33523618,Voice In,77033,4 days 02:47:46.000000000,3 days 20:07:51.000000000,2017
424,1.01002E+11,"1030 CREAGER, HOUSTON TX 77034",HARRIS,E,EDGEBROOK AREA,8.1074E+11,SE,SW,THURSDAY,2nd Monday,THURSDAY-B,576A,,SWM Solid Waste Management,Collections,Missed Garbage Pickup,SWM_CollectionsSE,4,Closed,1/2/2017 11:53,1/6/2017 8:00,1/4/2017 11:34,-1.85,Missed Garbage Collection-101002445173,3162963.456,13803339.43,29.6506827,-95.23867784,Voice In,77034,1 days 23:40:36.000000000,3 days 20:06:03.000000000,2017
426,1.01002E+11,"6323 SAINT AUGUSTINE, HOUSTON TX 77021",HARRIS,D,GREATER OST / SOUTH UNION,5.8214E+11,SE,SW,TUESDAY,3rd Tuesday,TUESDAY-A,533M,,SWM Solid Waste Management,Collections,Container Problem,SWM_CollectionsSE,10,Closed,1/2/2017 11:58,1/12/2017 11:58,1/3/2017 15:56,-8.84,Repair or Replace Damaged or Missing Container-101002445175,3125060.822,13818798.32,29.69647376,-95.35643731,Voice In,77021,1 days 03:57:35.000000000,10 days 00:00:00.000000000,2017
427,1.01002E+11,"7303 HERSHE, HOUSTON TX 77020",HARRIS,H,DENVER HARBOR / PORT HOUSTON,1.8112E+11,NE,NE,FRIDAY,1st Tuesday,FRIDAY-B,495E,,SWM Solid Waste Management,Collections,Container Problem,SWM_CollectionsNE,10,Closed,1/2/2017 12:00,5/6/2017 18:10,4/26/2017 18:10,-10,Repair or Replace Damaged or Missing Container-101002445176,3143226.847,13849367.96,29.77893054,-95.29619712,Voice In,77020,114 days 06:10:24.000000000,124 days 06:09:44.000000000,2017
428,12092016-101002445177,"12903 MAXFIELD, HOUSTON TX 77082",HARRIS,F,ELDRIDGE / WEST OAKS,1.11673E+12,SW,SW,MONDAY,1st Thursday,MONDAY-A,488Y,,PWE Public Works Engineering,PU Public Utilities,Sewer Wastewater,PU_WasteWater,1,Closed,1/2/2017 12:00,1/3/2017 12:00,1/4/2017 3:35,0.65,Sewer Wastewater-101002445177,3042979.719,13826130.2,29.72341033,-95.61420244,Voice In,77082,1 days 15:34:25.000000000,1 days 00:00:00.000000000,2017
431,12092020-101002445180,"8418 WOODLYN, HOUSTON TX 77028",HARRIS,B,EAST HOUSTON,8.7123E+11,NE,NW,THURSDAY,2nd Monday,THURSDAY-A,455G,,PWE Public Works Engineering,PU Public Utilities,Sewer Wastewater,PU_WasteWater,1,Closed,1/2/2017 12:01,1/3/2017 12:01,1/3/2017 14:45,0.11,Sewer Wastewater-101002445180,3150065.732,13872282.97,29.84131684,-95.27234725,Voice In,77028,1 days 02:43:37.000000000,0 days 23:59:59.000000000,2017
437,12092022-101002445186,"214 BURR, HOUSTON TX 77011",HARRIS,H,SECOND WARD,2.8021E+11,SE,SE,MONDAY,1st Wednesday,MONDAY-A,494T,East End MD,PWE Public Works Engineering,Street and Drainage,Street Hazard,ROWM_StreetMain,10,Closed,1/2/2017 12:05,1/12/2017 12:05,1/12/2017 8:10,-0.16,Street Hazard-101002445186,3133760.228,13836672.57,29.74485638,-95.32728137,Voice In,77011,9 days 20:04:15.000000000,9 days 23:59:59.000000000,2017
439,42429-101002445188,"6433 LOMA VISTA, HOUSTON TX 77085",HARRIS,K,CENTRAL SOUTHWEST,7.9173E+11,SW,SW,FRIDAY,4th Wednesday,FRIDAY-A,571T,Five Corners HCID #10B,NS Neighborhood Services,Investigations,Nuisance On Property,NS_Dispatch,180,Closed,1/2/2017 12:08,9/15/2017 8:00,5/4/2017 13:15,-133.78,"Nuisance on Property - Trash, Substances, Weeds, etc.-101002445188",3086226.316,13787070.65,29.61253045,-95.48171018,Voice In,77085,122 days 01:07:39.000000000,255 days 19:51:50.000000000,2017
443,12092025-101002445192,"5802 DOULTON, HOUSTON TX 77033",HARRIS,D,SOUTH PARK,7.903E+11,SE,SE,FRIDAY,4th Wednesday,FRIDAY-A,534S,,PWE Public Works Engineering,PU Public Utilities,Sewer Wastewater,PU_WasteWater,1,Closed,1/2/2017 12:13,1/3/2017 12:13,1/4/2017 3:35,0.64,Sewer Wastewater-101002445192,3132362.394,13810015.45,29.67170472,-95.33431685,Voice In,77033,1 days 15:21:39.000000000,1 days 00:00:00.000000000,2017
444,12092026-101002445193,"4022 WUTHERING HEIGHTS, HOUSTON TX 77045",HARRIS,K,CENTRAL SOUTHWEST,9.3106E+11,SW,SW,FRIDAY,4th Monday,FRIDAY-B,572J,Five Corners HCID #10B,PWE Public Works Engineering,PU Public Utilities,Sewer Wastewater,PU_WasteWater,1,Closed,1/2/2017 12:14,1/3/2017 12:14,2/17/2017 7:55,44.82,Sewer Wastewater-101002445193,3099706.364,13795532.09,29.63466771,-95.43849399,Voice In,77045,45 days 19:40:19.000000000,1 days 00:00:00.000000000,2017
445,1.01002E+11,"5131 ELYSIAN, HOUSTON TX 77009",HARRIS,H,NEAR NORTHSIDE,3.1157E+11,NE,NW,FRIDAY,1st Friday,FRIDAY-B,453V,Greater Northside MD,SWM Solid Waste Management,Collections,Container Problem,SWM_CollectionsNE,10,Closed,1/2/2017 12:15,1/12/2017 12:15,1/10/2017 16:24,-1.83,Repair or Replace Damaged or Missing Container-101002445194,3125283.343,13858915.97,29.80672515,-95.35179555,Voice In,77009,8 days 04:09:26.000000000,10 days 00:00:00.000000000,2017
447,1.01002E+11,"13443 SUMMIT RESERVE, HOUSTON TX 77059",HARRIS,E,CLEAR LAKE,1.35656E+12,SE,SE,THURSDAY,2nd Wednesday,THURSDAY-B,578X,,SWM Solid Waste Management,Recycling,Missed Recycling Pickup,SWM_Recycling,4,Closed,1/2/2017 12:20,1/6/2017 8:00,1/2/2017 12:22,-3.82,Missed Recycling Collection Report,NULL,NULL,29.6075784,-95.13168393,Voice In,77059,0 days 00:01:58.000000000,3 days 19:39:33.000000000,2017
449,1.01002E+11,"5751 RUE, HOUSTON TX 77033",HARRIS,D,SOUTH PARK,9.1065E+11,SE,SE,FRIDAY,4th Tuesday,FRIDAY-A,574A,,SWM Solid Waste Management,Collections,Container Problem,SWM_CollectionsSE,10,Closed,1/2/2017 12:21,1/12/2017 12:21,1/3/2017 15:53,-8.85,Repair or Replace Damaged or Missing Container-101002445198,3132672.606,13802567.36,29.65120523,-95.33407553,Voice In,77033,1 days 03:32:32.000000000,9 days 23:59:59.000000000,2017
451,12092027-101002445200,"1528 CRESLINE, HOUSTON TX 77093",HARRIS,B,EASTEX - JENSEN AREA,6.7069E+11,NE,NE,MONDAY,2nd Thursday,MONDAY-B,413Z,Greater Northside MD,PWE Public Works Engineering,PU Public Utilities,Water Leak,PU_Water,10,Closed,1/2/2017 12:25,1/12/2017 12:25,1/2/2017 14:40,-9.91,Water Leak-101002445200,3121949.511,13878284.97,29.86024865,-95.36040244,Voice In,77093,0 days 02:14:46.000000000,10 days 00:00:00.000000000,2017
461,12092031-101002445212,"11226 SAGEPARK, HOUSTON TX 77089",HARRIS,D,SOUTH BELT / ELLINGTON,1.00023E+12,SE,SE,THURSDAY,2nd Thursday,THURSDAY-B,616B,,PWE Public Works Engineering,Street and Drainage,Street Hazard,ROWM_StreetMain,10,Closed,1/2/2017 12:32,1/12/2017 12:32,1/3/2017 8:35,-9.16,Street Hazard-101002445212,3168628.651,13781186.92,29.58929053,-95.22310273,Voice In,77089,0 days 20:02:47.000000000,9 days 23:59:50.000000000,2017
462,1.01002E+11,"511 FOXGLOVE, HOUSTON TX 77076",HARRIS,H,NORTHSIDE/NORTHLINE,7.6067E+11,NE,NW,MONDAY,3rd Tuesday,MONDAY-B,453A,Greater Northside MD,SWM Solid Waste Management,Recycling,Missed Recycling Pickup,SWM_RecyclingNW,4,Closed,1/2/2017 12:32,1/6/2017 8:00,1/9/2017 18:06,3.42,Missed Recycling Collection Report-101002445213,3111929.524,13874114.45,29.84963913,-95.3924052,Voice In,77076,7 days 05:33:33.000000000,3 days 19:27:28.000000000,2017
467,12092033-101002445218,"6901 NARCISSUS, HOUSTON TX 77087",HARRIS,I,PECAN PARK,6.0127E+11,SE,SE,MONDAY,1st Tuesday,MONDAY-B,535E,East End MD,PWE Public Works Engineering,PU Public Utilities,Sewer Wastewater,PU_WasteWater,1,Closed,1/2/2017 12:36,1/3/2017 12:36,1/4/2017 3:35,0.62,Sewer Wastewater-101002445218,3143976.974,13823287.18,29.70717853,-95.29643679,Voice In,77087,1 days 14:58:15.000000000,1 days 00:00:00.000000000,2017
473,1.01002E+11,"4605 RANGER, HOUSTON TX 77028",HARRIS,B,SETTEGAST,7.1036E+11,NE,NE,FRIDAY,1st Tuesday,FRIDAY-B,455W,,SWM Solid Waste Management,Collections,Missed Garbage Pickup,SWM_CollectionsNE,4,Closed,1/2/2017 12:44,1/6/2017 8:00,4/25/2017 17:17,109.39,Missed Garbage Collection-101002445225,3145850.984,13857845.02,29.80200182,-95.28708076,Voice In,77028,113 days 04:32:42.000000000,3 days 19:15:36.000000000,2017
474,12092039-101002445226,"5458 IMOGENE, HOUSTON TX 77096",HARRIS,C,MEYERLAND AREA,9.2119E+11,SW,SE,TUESDAY,2nd Wednesday,TUESDAY-B,531P,,PWE Public Works Engineering,PU Public Utilities,Sewer Wastewater,PU_WasteWater,1,Closed,1/2/2017 12:44,1/3/2017 12:44,1/3/2017 14:35,0.08,Sewer Wastewater-101002445226,3085026.358,13812942.58,29.6837476,-95.48303678,Voice In,77096,1 days 01:50:10.000000000,1 days 00:00:00.000000000,2017
475,12092036-101002445227,"10614 TENNECO, HOUSTON TX 77099",FORT BEND,F,ALIEF,3.90004E+15,SW,SW,MONDAY,1st Tuesday,MONDAY-B,528Y,,PWE Public Works Engineering,PU Public Utilities,Sewer Wastewater,PU_WasteWater,1,Closed,1/2/2017 12:45,1/3/2017 12:45,1/3/2017 11:15,-0.06,Sewer Wastewater-101002445227,3043800.544,13805379.45,29.66630319,-95.61351025,Voice In,77099,0 days 22:29:08.000000000,0 days 23:59:59.000000000,2017
476,42430-101002445228,"7003 HENDON, HOUSTON TX 77074",HARRIS,J,SHARPSTOWN,8.8254E+11,SW,SW,TUESDAY,2nd Tuesday,TUESDAY-B,530M,Sharpstown MD,NS Neighborhood Services,Investigations,Nuisance On Property,NS_Dispatch,180,Closed,1/2/2017 12:46,9/15/2017 8:00,1/11/2017 15:47,-246.68,Nuisance On Property - 169287,3077615.044,13816871.22,29.69509317,-95.50617176,WAP,77074,9 days 03:01:34.000000000,255 days 19:13:50.000000000,2017
477,42431-101002445229,"1528 JOHANNA, HOUSTON TX 77055",HARRIS,A,SPRING BRANCH EAST,7.7039E+11,NW,NE,FRIDAY,4th Wednesday,FRIDAY-A,451X,Spring Branch MD,NS Neighborhood Services,Investigations,Nuisance On Property,NS_Dispatch,180,Closed,1/2/2017 12:47,9/15/2017 8:00,10/10/2017 10:21,25.1,"Nuisance on Property - Trash, Substances, Weeds, etc.-101002445229",3083940.12,13854786.63,29.79885741,-95.48249319,Voice In,77055,280 days 21:33:57.000000000,255 days 19:12:40.000000000,2017
478,1.01002E+11,"806 BLANCHARD HILL, HOUSTON TX 77047",HARRIS,D,CENTRAL SOUTHWEST,1.26799E+12,SW,SW,FRIDAY,4th Thursday,FRIDAY-B,572Q,Five Corners HCID #10B,SWM Solid Waste Management,Collections,Missed Garbage Pickup,SWM_CollectionsSW,4,Closed,1/2/2017 12:48,1/6/2017 8:00,1/6/2017 15:27,0.31,Missed Garbage Collection-101002445230,3108965.496,13789110,29.61623612,-95.40998112,Voice In,77047,4 days 02:38:46.000000000,3 days 19:11:27.000000000,2017
479,12092038-101002445231,"7726 ASHMOLE, HOUSTON TX 77088",HARRIS,A,ACRES HOME,3.6104E+11,NW,NW,TUESDAY,4th Monday,TUESDAY-B,411V,,PWE Public Works Engineering,PU Public Utilities,Sewer Wastewater,PU_WasteWater,1,Closed,1/2/2017 12:49,1/3/2017 12:49,1/2/2017 16:25,-0.85,Sewer Wastewater-101002445231,3091952.355,13883183.13,29.87624538,-95.45452838,Voice In,77088,0 days 03:35:56.000000000,1 days 00:00:00.000000000,2017
482,12092041-101002445234,"9006 ABBEYDALE, HOUSTON TX 77031",HARRIS,K,BRAYS OAKS,1.05855E+12,SW,SW,THURSDAY,2nd Friday,THURSDAY-A,570A,HCID #5 (Brays Oaks),PWE Public Works Engineering,Street and Drainage,Street Hazard,ROWM_StreetMain,10,Closed,1/2/2017 12:50,1/12/2017 12:50,1/5/2017 7:55,-7.21,Street Hazard-101002445234,3067176.522,13800375.49,29.65066645,-95.54039983,Voice In,77031,2 days 19:04:11.000000000,10 days 00:00:00.000000000,2017
486,12092042-101002445238,"7523 MARKET, HOUSTON TX 77020",HARRIS,H,DENVER HARBOR / PORT HOUSTON,1.815E+11,NE,NE,FRIDAY,1st Tuesday,FRIDAY-B,495E,East End MD,PWE Public Works Engineering,PU Public Utilities,Sewer Wastewater,PU_WasteWater,1,Closed,1/2/2017 12:53,1/3/2017 12:53,1/2/2017 15:20,-0.9,Sewer Wastewater-101002445238,3144597.016,13847228,29.77292925,-95.29209384,Voice In,77020,0 days 02:26:21.000000000,1 days 00:00:00.000000000,2017
498,42432-101002445251,"13911 KENSINGTON, HOUSTON TX 77034",HARRIS,E,SOUTH BELT / ELLINGTON,1.11624E+12,SE,SE,THURSDAY,2nd Thursday,THURSDAY-B,577X,,NS Neighborhood Services,Investigations,Nuisance On Property,NS_Dispatch,180,Closed,1/2/2017 13:12,9/15/2017 8:00,5/9/2017 12:15,-128.82,"Nuisance on Property - Trash, Substances, Weeds, etc.-101002445251",3181875.283,13784603.59,29.59749903,-95.18109304,Voice In,77034,126 days 23:03:44.000000000,255 days 18:47:47.000000000,2017
501,12092045-101002445254,"878 GRANVILLE, HOUSTON TX 77091",HARRIS,B,ACRES HOME,6.9047E+11,NW,NE,TUESDAY,3rd Friday,TUESDAY-B,412Y,,PWE Public Works Engineering,PU Public Utilities,Sewer Wastewater,PU_WasteWater,1,Closed,1/2/2017 13:14,1/3/2017 13:14,1/2/2017 19:20,-0.75,Sewer Wastewater-101002445254,3102631.282,13878837.73,29.86340715,-95.4212675,Voice In,77091,0 days 06:05:26.000000000,1 days 00:00:00.000000000,2017
502,12092047-101002445255,"8422 LONE QUAIL, HOUSTON TX 77489",FORT BEND,K,FORT BEND HOUSTON,5.89002E+15,SW,SW,FRIDAY,3rd Friday,FRIDAY-A,610C,,PWE Public Works Engineering,PU Public Utilities,Sewer Wastewater,PU_WasteWater,1,Closed,1/2/2017 13:16,1/3/2017 13:16,1/2/2017 15:55,-0.89,Sewer Wastewater-101002445255,3076093.15,13776066.92,29.58311671,-95.51461952,Voice In,77489,0 days 02:38:34.000000000,1 days 00:00:00.000000000,2017
505,12092048-101002445258,"7560 ASHBURN, HOUSTON TX 77061",HARRIS,I,GOLFCREST / BELLFORT / REVEILLE,6.0007E+11,SE,SE,FRIDAY,3rd Monday,FRIDAY-A,535W,HCID #9,PWE Public Works Engineering,PU Public Utilities,Sewer Wastewater,PU_WasteWater,1,Closed,1/2/2017 13:18,1/3/2017 13:18,1/5/2017 16:05,2.12,Sewer Wastewater-101002445258,3146504.98,13808658.62,29.66674896,-95.2899388,Voice In,77061,3 days 02:47:00.000000000,1 days 00:00:00.000000000,2017
507,12092049-101002445260,"12903 LEAF GLEN, HOUSTON TX 77072",HARRIS,F,ALIEF,1.09853E+12,SW,SW,MONDAY,1st Tuesday,MONDAY-B,528M,International MD,PWE Public Works Engineering,PU Public Utilities,Water Leak,PU_Water,10,Closed,1/2/2017 13:20,1/12/2017 13:19,1/2/2017 16:25,-9.87,Water Leak-101002445260,3045053.055,13814900.58,29.69237614,-95.60869862,Voice In,77072,0 days 03:05:03.000000000,9 days 23:59:59.000000000,2017
511,12092052-101002445264,"3414 WOODRIDGE, HOUSTON TX 77087",HARRIS,I,GOLFCREST / BELLFORT / REVEILLE,4.5066E+11,,,,,,534M,,PWE Public Works Engineering,PU Public Utilities,Sewer Wastewater,PU_WasteWater,1,Closed,1/2/2017 13:25,1/3/2017 13:25,1/4/2017 18:55,1.23,Sewer Wastewater-101002445264,3143310.958,13818691.93,29.69460564,-95.29899182,Voice In,77087,2 days 05:29:54.000000000,1 days 00:00:00.000000000,2017
516,12092054-101002445269,"7023 CRESTMONT, HOUSTON TX 77033",HARRIS,D,SOUTH PARK,7.6154E+11,SE,SE,FRIDAY,4th Wednesday,FRIDAY-A,534T,,PWE Public Works Engineering,PU Public Utilities,Sewer Wastewater,PU_WasteWater,1,Closed,1/2/2017 13:28,1/3/2017 13:28,1/2/2017 16:25,-0.88,Sewer Wastewater-101002445269,3134193.683,13811526.47,29.67570014,-95.32840347,Voice In,77033,0 days 02:56:11.000000000,1 days 00:00:00.000000000,2017
518,12092055-101002445271,"5342 FAYETTE, HOUSTON TX 77056",HARRIS,J,GREATER UPTOWN,7.7087E+11,SW,SW,MONDAY,1st Friday,MONDAY-A,491U,SAINT GEORGE PLACE MD,PWE Public Works Engineering,PU Public Utilities,Sewer Wastewater,PU_WasteWater,1,Closed,1/2/2017 13:34,1/3/2017 13:34,1/4/2017 3:35,0.58,Sewer Wastewater-101002445271,3088434.832,13832411.82,29.73698222,-95.47045663,Voice In,77056,1 days 14:01:01.000000000,1 days 00:00:00.000000000,2017
520,42433-101002445273,"7301 BELLFORT, HOUSTON TX 77087",HARRIS,I,GOLFCREST / BELLFORT / REVEILLE,4.1012E+11,SE,SE,TUESDAY,3rd Monday,TUESDAY-A,534V,HCID #9,NS Neighborhood Services,Investigations,Nuisance On Property,NS_Dispatch,180,Closed,1/2/2017 13:35,9/15/2017 8:00,2/1/2017 14:50,-225.71,"Nuisance on Property - Trash, Substances, Weeds, etc.-101002445273",3143350.247,13810937.77,29.67328848,-95.29964077,Voice In,77087,30 days 01:14:53.000000000,255 days 18:24:25.000000000,2017
523,12092057-101002445276,"5629 HARRIET, HOUSTON TX 77023",HARRIS,I,LAWNDALE / WAYSIDE,5.6345E+11,SE,SE,MONDAY,1st Wednesday,MONDAY-A,534C,East End MD,PWE Public Works Engineering,PU Public Utilities,Sewer Wastewater,PU_WasteWater,1,Closed,1/2/2017 13:42,1/3/2017 13:42,1/4/2017 3:35,0.58,Sewer Wastewater-101002445276,3136521.256,13827333.67,29.71894817,-95.31951079,Voice In,77023,1 days 13:53:05.000000000,1 days 00:00:00.000000000,2017
525,12092059-101002445278,"407 E 25TH, HOUSTON TX 77008",HARRIS,C,GREATER HEIGHTS,3.50961E+11,NW,NE,THURSDAY,3rd Wednesday,THURSDAY-B,453S,,PWE Public Works Engineering,PU Public Utilities,Water Leak,PU_Water,10,Closed,1/2/2017 13:42,1/12/2017 13:42,1/5/2017 1:15,-7.52,Water Leak-101002445278,3111873.19,13859358.57,29.80908524,-95.39401783,Voice In,77008,2 days 11:32:14.000000000,9 days 23:59:57.000000000,2017
531,12092061-101002445284,"10303 HINESBURG, HOUSTON TX 77075",HARRIS,D,SOUTH BELT / ELLINGTON,1.26546E+12,SE,SW,THURSDAY,2nd Friday,THURSDAY-B,575V,,PWE Public Works Engineering,PU Public Utilities,Water Leak,PU_Water,10,Closed,1/2/2017 13:50,1/12/2017 13:50,1/5/2017 1:15,-7.52,Water Leak-101002445284,3158479.728,13790325.63,29.61530757,-95.25409938,Voice In,77075,2 days 11:24:11.000000000,9 days 23:59:59.000000000,2017
534,1.01002E+11,"604 PORT, HOUSTON TX 77020",HARRIS,H,DENVER HARBOR / PORT HOUSTON,1.8115E+11,NE,NE,FRIDAY,1st Tuesday,FRIDAY-B,495E,,SWM Solid Waste Management,Collections,Missed Garbage Pickup,SWM_CollectionsNE,4,Closed,1/2/2017 13:52,1/6/2017 8:00,4/25/2017 17:16,109.39,Missed Garbage Collection-101002445287,3143126.262,13849192.59,29.77843468,-95.29654331,Voice In,77020,113 days 03:24:23.000000000,3 days 18:07:31.000000000,2017
536,1.01002E+11,"7438 JACKWOOD, HOUSTON TX 77074",HARRIS,J,SHARPSTOWN,9.2405E+11,SW,SW,TUESDAY,2nd Monday,TUESDAY-B,530Q,Sharpstown MD,SWM Solid Waste Management,Collections,Container Problem,SWM_CollectionsSW,10,Closed,1/2/2017 13:56,1/30/2017 15:34,1/20/2017 15:35,-10,Repair or Replace Damaged or Missing Container-101002445289,3074084.731,13813406.37,29.68592278,-95.51743801,Voice In,77074,18 days 01:38:55.000000000,28 days 01:37:14.000000000,2017
540,12092066-101002445293,"8306 PARNELL, HOUSTON TX 77051",HARRIS,D,SUNNYSIDE,5.1174E+11,SE,SE,FRIDAY,4th Thursday,FRIDAY-A,533T,HCID #10-A,PWE Public Works Engineering,PU Public Utilities,Sewer Wastewater,PU_WasteWater,1,Closed,1/2/2017 14:02,1/3/2017 14:02,1/3/2017 12:35,-0.06,Sewer Wastewater-101002445293,3119260.591,13809586.74,29.67164911,-95.37559735,Voice In,77051,0 days 22:32:42.000000000,1 days 00:00:00.000000000,2017
541,1.01002E+11,"6205 MOUNT HOUSTON, HOUSTON TX 77050",HARRIS,B,EAST LITTLE YORK / HOMESTEAD,1.7208E+11,NE,NE,TUESDAY,2nd Wednesday,TUESDAY-A,415J,,SWM Solid Waste Management,Collections,Missed Heavy Trash Pickup,SWM_CollectionsNE,7,Closed,1/2/2017 14:02,1/11/2017 8:00,1/27/2017 14:17,16.26,Missed Heavy Trash Pick Up (alternating Tree and Junk Waste)-101002445294,3141518.211,13890356.27,29.89173844,-95.29749074,Voice In,77050,25 days 00:14:31.000000000,8 days 17:57:23.000000000,2017
542,12092067-101002445295,"7715 MILLER GLEN, HOUSTON TX 77072",HARRIS,F,ALIEF,1.09852E+12,SW,SW,MONDAY,1st Tuesday,MONDAY-B,528L,International MD,PWE Public Works Engineering,PU Public Utilities,Water Leak,PU_Water,10,Closed,1/2/2017 14:04,1/12/2017 14:04,1/8/2017 4:50,-4.38,Water Leak-101002445295,3044752.995,13815218.93,29.69327516,-95.60961426,Voice In,77072,5 days 14:45:58.000000000,10 days 00:00:00.000000000,2017
544,1.01002E+11,"7657 LINDA, HOUSTON TX 77087",HARRIS,I,GOLFCREST / BELLFORT / REVEILLE,7.2032E+11,SE,SE,TUESDAY,3rd Wednesday,TUESDAY-A,535N,,SWM Solid Waste Management,Collections,Container Problem,SWM_CollectionsSE,10,Closed,1/2/2017 14:05,1/12/2017 14:05,1/3/2017 15:47,-8.93,Repair or Replace Damaged or Missing Container-101002445297,3146966.185,13818096.6,29.69265072,-95.28754399,Voice In,77087,1 days 01:42:00.000000000,10 days 00:00:00.000000000,2017
547,12092069-101002445300,"106 MATISSE, HOUSTON TX 77079",HARRIS,G,MEMORIAL,9.4175E+11,NW,NW,MONDAY,4th Wednesday,MONDAY-A,489L,,PWE Public Works Engineering,PU Public Utilities,Water Leak,PU_Water,10,Closed,1/2/2017 14:07,1/12/2017 14:07,1/2/2017 16:25,-9.9,Water Leak-101002445300,3056504.112,13841294.63,29.76401152,-95.57020897,Voice In,77079,0 days 02:17:16.000000000,10 days 00:00:00.000000000,2017
548,1.01002E+11,"4202 TAVENOR, HOUSTON TX 77047",HARRIS,D,SOUTH ACRES / CRESTMONT PARK,8.8039E+11,SE,SE,FRIDAY,4th Friday,FRIDAY-B,573L,HCID #10-A,NS Neighborhood Services,Investigations,Nuisance On Property,NS_Dispatch,180,Closed,1/2/2017 14:08,9/15/2017 8:00,1/5/2017 7:30,-253.02,"Nuisance on Property - Trash, Substances, Weeds, etc.-101002445301",3124074.829,13795879.8,29.63356103,-95.36178689,Voice In,77047,2 days 17:21:28.000000000,255 days 17:51:27.000000000,2017
553,12092071-101002445306,"1535 SUTTON, HOUSTON TX 77006",HARRIS,C,FOURTH WARD,1.2115E+12,,,,,,493P,,PWE Public Works Engineering,PU Public Utilities,Sewer Wastewater,PU_WasteWater,1,Closed,1/2/2017 14:13,1/3/2017 14:13,1/4/2017 14:10,1,Sewer Wastewater-101002445306,3116104.664,13838243.25,29.75068668,-95.38274013,Voice In,77006,1 days 23:56:53.000000000,1 days 00:00:00.000000000,2017
557,12092073-101002445310,"2911 S SHEPHERD, HOUSTON TX 77098",HARRIS,C,NEARTOWN - MONTROSE,2.6058E+11,NW,NE,MONDAY,1st Wednesday,MONDAY-A,492U,Montrose Management District,PWE Public Works Engineering,PU Public Utilities,Sewer Wastewater,PU_WasteWater,1,Closed,1/2/2017 14:19,1/3/2017 14:19,1/12/2017 7:15,8.71,Sewer Wastewater-101002445310,3107429.022,13833872.32,29.73940722,-95.41049131,Voice In,77098,9 days 16:55:47.000000000,0 days 23:59:57.000000000,2017
558,12092074-101002445311,"16639 SEAWOLF, HOUSTON TX 77062",HARRIS,E,CLEAR LAKE,1.03136E+12,SE,SE,THURSDAY,2nd Wednesday,THURSDAY-B,618T,,PWE Public Works Engineering,PU Public Utilities,Sewer Wastewater,PU_WasteWater,1,Closed,1/2/2017 14:19,1/3/2017 14:19,1/2/2017 16:25,-0.91,Sewer Wastewater-101002445311,3199452.427,13768856.7,29.55262708,-95.1274524,Voice In,77062,0 days 02:05:31.000000000,0 days 23:59:59.000000000,2017
563,1.01002E+11,"826 REGAL, HOUSTON TX 77034",HARRIS,E,EDGEBROOK AREA,9.4082E+11,SE,SW,THURSDAY,2nd Monday,THURSDAY-B,576E,,SWM Solid Waste Management,Collections,Missed Garbage Pickup,SWM_CollectionsSE,4,Closed,1/2/2017 14:22,1/6/2017 8:00,2/28/2017 10:52,53.12,Missed Garbage Collection-101002445316,3164368.09,13801919.76,29.64665621,-95.23440164,Voice In,77034,56 days 20:30:25.000000000,3 days 17:37:58.000000000,2017
568,12092077-101002445321,"1039 CURTIN, HOUSTON TX 77018",HARRIS,C,CENTRAL NORTHWEST,9.2392E+11,NW,NE,TUESDAY,3rd Thursday,TUESDAY-B,452L,,PWE Public Works Engineering,Street and Drainage,Street Hazard,ROWM_StreetMain,10,Closed,1/2/2017 14:25,1/12/2017 14:25,1/3/2017 8:45,-9.24,Street Hazard-101002445321,3102888.304,13867170.27,29.83131576,-95.42158312,Voice In,77018,0 days 18:19:59.000000000,9 days 23:59:59.000000000,2017
575,12092081-101002445328,"635 DORCHESTER, HOUSTON TX 77022",HARRIS,H,NORTHSIDE/NORTHLINE,6.5052E+11,NE,NE,MONDAY,2nd Friday,MONDAY-B,453Q,Greater Northside MD,PWE Public Works Engineering,Street and Drainage,Street Hazard,ROWM_StreetMain,10,Closed,1/2/2017 14:32,1/12/2017 14:32,1/3/2017 8:25,-9.26,Street Hazard-101002445328,3121333.819,13864823.95,29.82330222,-95.36366418,Voice In,77022,0 days 17:52:26.000000000,9 days 23:59:59.000000000,2017
578,42434-101002445331,"221 ALTIC, HOUSTON TX 77011",HARRIS,H,SECOND WARD,1.5027E+11,SE,SE,MONDAY,1st Wednesday,MONDAY-A,494U,East End MD,NS Neighborhood Services,Investigations,Nuisance On Property,NS_Dispatch,180,Closed,1/2/2017 14:33,9/15/2017 8:00,1/18/2017 10:48,-239.88,"Nuisance on Property - Trash, Substances, Weeds, etc.-101002445331",3136221.877,13835956.91,29.74267648,-95.31959871,Voice In,77011,15 days 20:14:44.000000000,255 days 17:26:05.000000000,2017
580,12092083-101002445333,"3502 COCHRAN, HOUSTON TX 77009",HARRIS,H,NEAR NORTHSIDE,3.1041E+11,NE,NW,FRIDAY,1st Friday,FRIDAY-B,453Z,Greater Northside MD,PWE Public Works Engineering,PU Public Utilities,Water Leak,PU_Water,10,Closed,1/2/2017 14:35,1/12/2017 14:35,1/2/2017 16:25,-9.92,Water Leak-101002445333,3124183.529,13853701.76,29.79248746,-95.35577409,Voice In,77009,0 days 01:49:10.000000000,9 days 23:59:59.000000000,2017
589,1.01002E+11,"311 SHOTWELL, HOUSTON TX 77020",HARRIS,H,DENVER HARBOR / PORT HOUSTON,1.2098E+11,NE,NE,FRIDAY,1st Tuesday,FRIDAY-B,494C,,SWM Solid Waste Management,Collections,Container Problem,SWM_CollectionsNE,10,Closed,1/2/2017 14:46,1/12/2017 14:46,1/6/2017 16:58,-5.91,Repair or Replace Damaged or Missing Container-101002445343,3138413.38,13850824.28,29.7833517,-95.31121866,Voice In,77020,4 days 02:12:13.000000000,9 days 23:59:59.000000000,2017
595,12092088-101002445350,"10303 HOMESTEAD, HOUSTON TX 77016",HARRIS,B,EAST LITTLE YORK / HOMESTEAD,8.5175E+11,NE,NW,TUESDAY,2nd Thursday,TUESDAY-A,414Z,,PWE Public Works Engineering,PU Public Utilities,Sewer Wastewater,PU_WasteWater,1,Closed,1/2/2017 14:59,1/3/2017 14:59,1/3/2017 13:00,-0.08,Sewer Wastewater-101002445350,3140796.244,13879140.25,29.86097364,-95.30088741,Voice In,77016,0 days 22:00:26.000000000,1 days 00:00:00.000000000,2017
596,12092087-101002445351,"3237 INWOOD, HOUSTON TX 77019",HARRIS,G,AFTON OAKS / RIVER OAKS AREA,6.0131E+11,,,,,,492P,,PWE Public Works Engineering,PU Public Utilities,Water Leak,PU_Water,10,Closed,1/2/2017 15:02,1/12/2017 15:02,1/2/2017 16:50,-9.92,Water Leak-101002445351,3102872.415,13837940.4,29.75097306,-95.42445133,Voice In,77019,0 days 01:48:01.000000000,10 days 00:00:00.000000000,2017
602,12092091-101002445359,"7706 JUTLAND, HOUSTON TX 77033",HARRIS,D,SOUTH PARK,7.622E+11,SE,SE,FRIDAY,4th Thursday,FRIDAY-A,534S,HCID #10-A,PWE Public Works Engineering,Street and Drainage,Street Hazard,ROWM_StreetMain,10,Closed,1/2/2017 15:11,1/12/2017 15:11,1/5/2017 14:50,-7.01,Street Hazard-101002445359,3128628.259,13810572.16,29.67355628,-95.34601539,Voice In,77033,2 days 23:38:42.000000000,10 days 00:00:00.000000000,2017
604,1.01002E+11,"710 SUNNYSIDE, HOUSTON TX 77076",HARRIS,H,NORTHSIDE/NORTHLINE,6.8035E+11,NE,NW,MONDAY,3rd Tuesday,MONDAY-B,413W,Greater Northside MD,SWM Solid Waste Management,Collections,Container Problem,SWM_CollectionsNE,10,Closed,1/2/2017 15:14,1/12/2017 15:14,1/12/2017 8:33,-0.28,Repair or Replace Damaged or Missing Container-101002445361,3113069.912,13876695.71,29.85663726,-95.38855807,Voice In,77076,9 days 17:18:45.000000000,10 days 00:00:00.000000000,2017
605,1.01002E+11,"712 SUNNYSIDE, HOUSTON TX 77076",HARRIS,H,NORTHSIDE/NORTHLINE,6.8035E+11,NE,NW,MONDAY,3rd Tuesday,MONDAY-B,413W,Greater Northside MD,SWM Solid Waste Management,Collections,Container Problem,SWM_CollectionsNE,10,Closed,1/2/2017 15:15,1/12/2017 15:15,1/12/2017 8:38,-0.28,Repair or Replace Damaged or Missing Container-101002445362,3113079.625,13876577.41,29.85631127,-95.38853897,Voice In,77076,9 days 17:22:58.000000000,10 days 00:00:00.000000000,2017
608,12092092-101002445365,"3146 CASTLEWOOD, HOUSTON TX 77025",HARRIS,K,BRAESWOOD,7.7203E+11,SW,SE,THURSDAY,3rd Monday,THURSDAY-A,532P,,PWE Public Works Engineering,PU Public Utilities,Sewer Wastewater,PU_WasteWater,1,Closed,1/2/2017 15:20,1/3/2017 15:20,1/3/2017 14:35,-0.03,Sewer Wastewater-101002445365,3102727.755,13816037.85,29.69078052,-95.42701552,Voice In,77025,0 days 23:14:49.000000000,1 days 00:00:00.000000000,2017
617,1.01002E+11,"4606 PICKFAIR, HOUSTON TX 77026",HARRIS,B,KASHMERE GARDENS,6.5123E+11,NE,NE,FRIDAY,1st Thursday,FRIDAY-B,454U,,SWM Solid Waste Management,Collections,Container Problem,SWM_CollectionsNE,10,Closed,1/2/2017 15:24,1/12/2017 15:24,1/6/2017 17:04,-5.93,Repair or Replace Damaged or Missing Container-101002445374,3135937.48,13857693.2,29.80244624,-95.31833853,Voice In,77026,4 days 01:40:12.000000000,10 days 00:00:00.000000000,2017
620,1.01002E+11,"2142 CAMPBELL, HOUSTON TX 77080",HARRIS,A,SPRING BRANCH CENTRAL,7.5125E+11,NW,NE,FRIDAY,4th Friday,FRIDAY-A,450P,Spring Branch MD,SWM Solid Waste Management,Collections,Missed Garbage Pickup,SWM_CollectionsNW,4,Closed,1/2/2017 15:30,1/6/2017 8:00,1/3/2017 16:36,-2.64,Missed Garbage Collection-101002445377,3070096.484,13859106.23,29.81186868,-95.5257183,Voice In,77080,1 days 01:06:38.000000000,3 days 16:29:55.000000000,2017
621,42439-101002445378,"1301 WAUGH, HOUSTON TX 77019",HARRIS,C,NEARTOWN - MONTROSE,5.2362E+11,NW,NE,MONDAY,1st Wednesday,MONDAY-A,493N,Montrose Management District,NS Neighborhood Services,Investigations,Nuisance On Property,NS_Dispatch,180,Closed,1/2/2017 15:30,9/15/2017 8:00,1/23/2017 9:48,-234.92,Nuisance On Property - 169312,3111319.567,13839790.76,29.75519443,-95.39774676,WAP,77019,20 days 18:18:31.000000000,255 days 16:29:42.000000000,2017
622,12092096-101002445379,"12026 WESSEX, HOUSTON TX 77089",HARRIS,D,SOUTH BELT / ELLINGTON,1.02208E+12,SE,SE,THURSDAY,2nd Thursday,THURSDAY-B,617A,,PWE Public Works Engineering,PU Public Utilities,Sewer Wastewater,PU_WasteWater,1,Closed,1/2/2017 15:31,1/3/2017 15:31,1/4/2017 18:50,1.14,Sewer Wastewater-101002445379,3177856.401,13781935.69,29.5905261,-95.19400605,Voice In,77089,2 days 03:18:09.000000000,1 days 00:00:00.000000000,2017
630,12092098-101002445389,"16506 QUAIL BRIAR, HOUSTON TX 77489",FORT BEND,K,FORT BEND HOUSTON,5.89002E+15,SW,SW,FRIDAY,3rd Friday,FRIDAY-A,610C,,PWE Public Works Engineering,PU Public Utilities,Sewer Wastewater,PU_WasteWater,1,Closed,1/2/2017 15:42,1/3/2017 15:42,2/8/2017 0:55,35.38,Sewer Wastewater-101002445389,3075590.566,13777509.32,29.58712292,-95.51606494,Voice In,77489,36 days 09:12:16.000000000,1 days 00:00:00.000000000,2017
631,12092099-101002445390,"11122 DALEBROOK, HOUSTON TX 77016",HARRIS,B,EAST LITTLE YORK / HOMESTEAD,1.02504E+12,NE,NE,TUESDAY,2nd Wednesday,TUESDAY-A,415P,,PWE Public Works Engineering,PU Public Utilities,Sewer Wastewater,PU_WasteWater,1,Closed,1/2/2017 15:44,1/3/2017 15:44,1/3/2017 12:30,-0.14,Sewer Wastewater-101002445390,3145040.454,13886007.54,29.87947883,-95.28681627,Voice In,77016,0 days 20:45:26.000000000,1 days 00:00:00.000000000,2017
632,12092100-101002445391,"5225 HIGGINS, HOUSTON TX 77033",HARRIS,D,SUNNYSIDE,7.52E+11,SE,SE,FRIDAY,4th Tuesday,FRIDAY-A,574A,HCID #10-A,PWE Public Works Engineering,PU Public Utilities,Sewer Wastewater,PU_WasteWater,1,Closed,1/2/2017 15:45,1/3/2017 15:45,1/4/2017 18:50,1.13,Sewer Wastewater-101002445391,3129862.922,13803757.34,29.65471803,-95.34280018,Voice In,77033,2 days 03:04:06.000000000,1 days 00:00:00.000000000,2017
636,12092102-101002445395,"11910 BINGHAMPTON, HOUSTON TX 77089",HARRIS,D,SOUTH BELT / ELLINGTON,1.05129E+12,SE,SE,THURSDAY,2nd Thursday,THURSDAY-B,616D,,PWE Public Works Engineering,PU Public Utilities,Sewer Wastewater,PU_WasteWater,1,Closed,1/2/2017 15:50,1/3/2017 15:50,1/2/2017 17:00,-0.95,Sewer Wastewater-101002445395,3174995.464,13780631.01,29.58719566,-95.2031367,Voice In,77089,0 days 01:09:04.000000000,1 days 00:00:00.000000000,2017
637,12092103-101002445396,"10003 NEY, HOUSTON TX 77034",HARRIS,E,EDGEBROOK AREA,9.0167E+11,SE,SW,THURSDAY,2nd Tuesday,THURSDAY-B,576E,,PWE Public Works Engineering,PU Public Utilities,Water Leak,PU_Water,10,Closed,1/2/2017 15:52,1/12/2017 15:52,1/2/2017 17:40,-9.93,Water Leak-101002445396,3163940.432,13799884.94,29.64110102,-95.23595348,Voice In,77034,0 days 01:47:48.000000000,9 days 23:59:59.000000000,2017
638,42440-101002445397,"5251 GULFTON, HOUSTON TX 77081",HARRIS,J,GULFTON,3.7054E+11,,,,,,531C,,NS Neighborhood Services,Investigations,Nuisance On Property,NS_Dispatch,180,Closed,1/2/2017 15:52,9/15/2017 8:00,2/8/2017 12:50,-218.8,"Nuisance on Property - Trash, Substances, Weeds, etc.-101002445397",3088298.645,13824825.97,29.71614169,-95.47160663,Voice In,77081,36 days 20:58:22.000000000,255 days 16:07:28.000000000,2017
639,12092104-101002445398,"5710 CHERRY, HOUSTON TX 77026",HARRIS,H,EASTEX - JENSEN AREA,7.0051E+11,NE,NE,MONDAY,2nd Tuesday,MONDAY-B,454S,Greater Northside MD,PWE Public Works Engineering,PU Public Utilities,Water Leak,PU_Water,10,Closed,1/2/2017 15:53,1/12/2017 15:53,1/6/2017 1:55,-6.58,Water Leak-101002445398,3127350.817,13860713.2,29.81148757,-95.34510242,Voice In,77026,3 days 10:02:02.000000000,10 days 00:00:00.000000000,2017
642,1.01002E+11,"1332 A W 21ST, HOUSTON TX 77008",HARRIS,C,GREATER HEIGHTS,1.2415E+12,NW,NW,THURSDAY,3rd Wednesday,THURSDAY-B,452T,,SWM Solid Waste Management,Collections,Container Problem,SWM_CollectionsNW,10,Closed,1/2/2017 15:59,1/12/2017 15:59,1/31/2017 16:58,19.04,Repair or Replace Damaged or Missing Container,NULL,NULL,29.80453653,-95.42364647,WEB,77008,29 days 00:58:12.000000000,10 days 00:00:00.000000000,2017
643,12092105-101002445402,"13011 AMBROSE, HOUSTON TX 77045",HARRIS,K,CENTRAL SOUTHWEST,1.15027E+12,SW,SW,FRIDAY,4th Monday,FRIDAY-B,572F,,PWE Public Works Engineering,PU Public Utilities,Sewer Wastewater,PU_WasteWater,1,Closed,1/2/2017 16:00,1/3/2017 16:00,1/3/2017 14:50,-0.05,Sewer Wastewater-101002445402,3104766.218,13797245.62,29.63895324,-95.4224084,Voice In,77045,0 days 22:49:19.000000000,1 days 00:00:00.000000000,2017
644,12092106-101002445404,"3527 DRUMMOND, HOUSTON TX 77025",HARRIS,C,BRAESWOOD,7.6017E+11,SW,SE,TUESDAY,3rd Tuesday,TUESDAY-B,532K,,PWE Public Works Engineering,PU Public Utilities,Sewer Wastewater,PU_WasteWater,1,Closed,1/2/2017 16:05,1/3/2017 16:05,1/3/2017 14:55,-0.05,Sewer Wastewater-101002445404,3101513.594,13817939.98,29.696111,-95.43065511,Voice In,77025,0 days 22:49:39.000000000,1 days 00:00:00.000000000,2017
647,12092108-101002445408,"6730 ROXBURY, HOUSTON TX 77087",HARRIS,I,GOLFCREST / BELLFORT / REVEILLE,9.0463E+11,SE,SE,TUESDAY,3rd Monday,TUESDAY-A,534V,HCID #9,PWE Public Works Engineering,PU Public Utilities,Sewer Wastewater,PU_WasteWater,1,Closed,1/2/2017 16:08,1/3/2017 16:08,1/2/2017 17:45,-0.93,Sewer Wastewater,NULL,NULL,29.67237154,-95.30843444,WEB,77087,0 days 01:36:36.000000000,1 days 00:00:00.000000000,2017
